EstablishmentID,InspectionID,EstablishmentName,PlaceName,Address,Address2,City,State,Zip,TypeDescription,Latitude,Longitude,InspectionDate,Score,Grade,NameSearch,Intersection
73002,1386666,JU-LI CREATIONS,,8621 HI VIEW LN,,LOUISVILLE,KY,40272,CATERERS,38.1212,0,6/8/18 0:00,100,A,JU-LI CREATIONS,
102648,1387088,DINING WITH GABOR AND MORE,,1812 W MUHAMMAD ALI BLVD,,LOUISVILLE,KY,40203,CATERERS,38.2535,-85.7816,6/12/18 0:00,99,A,DINING WITH GABOR AND MORE,
93324,1383273,GITA'S CATERING AT HOLIDAY INN,,6551 PARAMOUNT PARK DR,,LOUISVILLE,KY,40213,CATERERS,38.1541,-85.7122,5/30/18 0:00,96,A,GITA'S CATERING AT HOLIDAY INN,
70057,1378470,SINCERELY YOURS CATERING,,1515 CYPRESS ST,,LOUISVILLE,KY,40211,CATERERS,38.23,0,5/10/18 0:00,99,A,SINCERELY YOURS CATERING,
86636,1378944,GRACIOUS PLENTY CATERING,,2900 BROWNSBORO RD,,LOUISVILLE,KY,40206,CATERERS,38.26,-85.6881,5/14/18 0:00,100,A,GRACIOUS PLENTY CATERING,
99589,1379879,FESTIVAL CUISINE and SPIRITS,,473 ROBERTS AVE,,LOUISVILLE,KY,40214,CATERERS,38.1534,-85.7589,5/16/18 0:00,98,A,FESTIVAL CUISINE and SPIRITS,
103808,1387394,DOUGLASS BLVD CHRISTIAN CHURCH,,2005 DOUGLASS BLVD,,LOUISVILLE,KY,40205,CATERERS,38.2255,-85.6939,6/13/18 0:00,100,A,DOUGLASS BLVD CHRISTIAN CHURCH,
100132,1381785,NEW LEGACY,,1115 GARVIN PL,,LOUISVILLE,KY,40203,CATERERS,38.2368,-85.7614,5/22/18 0:00,97,A,NEW LEGACY,
75555,1388296,MIRABELLE GOURMET CATERING,,1309 CHRISTY AVE,,LOUISVILLE,KY,40204,CATERERS,38.24,-85.7304,6/15/18 0:00,94,A,MIRABELLE GOURMET CATERING,
81295,1388318,BEHA CATERING,,4714 PINEWOOD RD,,LOUISVILLE,KY,40218,CATERERS,38.1854,-85.6915,6/15/18 0:00,97,A,BEHA CATERING,
105038,1384217,SONAL'S KITCHEN,,4746 BARDSTOWN RD,,LOUISVILLE,KY,40218,CATERERS,38.1794,-85.6238,5/31/18 0:00,91,A,SONAL'S KITCHEN,
104407,1387395,DEE'S CATERING LLC,,2005 DOUGLASS BLVD,,LOUISVILLE,KY,40205,CATERERS,38.225,-85.6939,6/13/18 0:00,100,A,DEE'S CATERING LLC,
77581,1389839,MAGNOLIA FOODS CATERING,,621 W MAGNOLIA ST,,LOUISVILLE,KY,40208,CATERERS,38.2298,-85.7656,6/20/18 0:00,96,A,MAGNOLIA FOODS CATERING,
102328,1404194,TRUE NORTH CATERING,,1841 PLANTSIDE DR,,LOUISVILLE,KY,40299,CATERERS,38.217,-85.571,8/13/18 0:00,100,A,TRUE NORTH CATERING,
99376,1408460,THAT PLACE CATERING,,2060 S PRESTON ST,,LOUISVILLE,KY,40217,CATERERS,38.218,-85.7467,8/27/18 0:00,100,A,THAT PLACE CATERING,
100077,1410471,U OF L CATERING SERVICES,,2100 S FLOYD ST,,LOUISVILLE,KY,40208,CATERERS,38.2178,-85.7556,9/5/18 0:00,99,A,U OF L CATERING SERVICES,
98707,1412549,LUCRETIA'S KITCHEN,,1812 W MUHAMMAD ALI BLVD,,LOUISVILLE,KY,40203,CATERERS,38.2532,-85.7817,9/12/18 0:00,98,A,LUCRETIA'S KITCHEN,
89793,1402981,CHILDREN'S PANTRY,,7602 3RD STREET RD,,LOUISVILLE,KY,40214,CATERERS,38.1402,-85.7829,8/7/18 0:00,98,A,CHILDREN'S PANTRY,
86561,1412696,MASTERSON'S CATERING,,1231 LEXINGTON RD,,LOUISVILLE,KY,40204,CATERERS,38.2497,-85.7285,9/13/18 0:00,93,A,MASTERSON'S CATERING,
82396,1397568,KAREM'S DELI and CATERING,,3600 CHAMBERLAIN LN,,LOUISVILLE,KY,40241,CATERERS,38.303,-85.5527,7/17/18 0:00,97,A,KAREM'S DELI and CATERING,
103808,1439465,DOUGLASS BLVD CHRISTIAN CHURCH,,2005 DOUGLASS BLVD,,LOUISVILLE,KY,40205,CATERERS,38.2255,-85.6939,1/2/19 0:00,100,A,DOUGLASS BLVD CHRISTIAN CHURCH,
104407,1439466,DEE'S CATERING LLC,,2005 DOUGLASS BLVD,,LOUISVILLE,KY,40205,CATERERS,38.225,-85.6939,1/2/19 0:00,100,A,DEE'S CATERING LLC,
102191,1418034,COMMONWEALTH CATERING LLC,,2401 WOODBOURNE AVE,,LOUISVILLE,KY,40205,CATERERS,38.2281,-85.6848,10/3/18 0:00,100,A,COMMONWEALTH CATERING LLC,
99121,1398899,MARINATIONS CATERING,,1812 W MUHAMMAD ALI BLVD,,LOUISVILLE,KY,40203,CATERERS,38.2532,-85.7817,7/23/18 0:00,100,A,MARINATIONS CATERING,
93324,1440394,GITA'S CATERING AT HOLIDAY INN,,6551 PARAMOUNT PARK DR,,LOUISVILLE,KY,40213,CATERERS,38.1541,-85.7122,1/7/19 0:00,98,A,GITA'S CATERING AT HOLIDAY INN,
85392,1426161,DINING ELEGANCE CATERERS,,10920 PLANTSIDE DR,,LOUISVILLE,KY,40299,CATERERS,38.123,-85.333,11/1/18 0:00,100,A,DINING ELEGANCE CATERERS,
96749,1404224,RAMSEY'S RECIPES,,3812 W BROADWAY,,LOUISVILLE,KY,40212,CATERERS,38.2497,-85.2497,8/13/18 0:00,99,A,RAMSEY'S RECIPES,
99589,1427251,FESTIVAL CUISINE and SPIRITS,,473 ROBERTS AVE,,LOUISVILLE,KY,40214,CATERERS,38.1534,-85.7589,11/7/18 0:00,100,A,FESTIVAL CUISINE and SPIRITS,
70057,1435150,SINCERELY YOURS CATERING,,1515 CYPRESS ST,,LOUISVILLE,KY,40211,CATERERS,38.23,0,12/11/18 0:00,97,A,SINCERELY YOURS CATERING,
59613,1398570,NAIMAN CATERING,,601 S SHELBY ST,,LOUISVILLE,KY,40202,CATERERS,38.2467,-85.739,7/23/18 0:00,100,A,NAIMAN CATERING,
100132,1431781,NEW LEGACY,,1115 GARVIN PL,,LOUISVILLE,KY,40203,CATERERS,38.2368,-85.7614,11/26/18 0:00,95,A,NEW LEGACY,
100103,1399928,MACRO MAN,,1812 W MUHAMMAD ALI BLVD,,LOUISVILLE,KY,40203,CATERERS,38.2532,-85.7817,7/25/18 0:00,100,A,MACRO MAN,
104703,1422981,ELM CATERING,,1831 PLANTSIDE DR,,LOUISVILLE,KY,40299,CATERERS,38.2218,-85.5758,10/22/18 0:00,100,A,ELM CATERING,
105038,1424891,SONAL'S KITCHEN,,4746 BARDSTOWN RD,,LOUISVILLE,KY,40218,CATERERS,38.1794,-85.6238,10/30/18 0:00,94,A,SONAL'S KITCHEN,
98846,1426846,FULL PLATE,,3220 FRANKFORT AVE,,LOUISVILLE,KY,40206,CATERERS,38.254,-85.674,11/6/18 0:00,95,A,FULL PLATE,
103459,1424968,YUMMY NOSH CATERING,,3506 TAYLOR BLVD,,LOUISVILLE,KY,40215,CATERERS,38.196,-85.7835,10/30/18 0:00,97,A,YUMMY NOSH CATERING,
88196,1396658,BRECKENRIDGE INN,,2800 BRECKENRIDGE LN,,LOUISVILLE,KY,40220,CATERERS,38.2253,-85.6321,7/12/18 0:00,98,A,BRECKENRIDGE INN,
81295,1435206,BEHA CATERING,,4714 PINEWOOD RD,,LOUISVILLE,KY,40218,CATERERS,38.1854,-85.6915,12/11/18 0:00,95,A,BEHA CATERING,
106169,1421367,CLEM CREATIVE,,1812 W MUHAMMAD ALI BLVD,,LOUISVILLE,KY,40203,CATERERS,38.2536,-85.7816,10/12/18 0:00,100,A,CLEM CREATIVE,
104252,1421684,JARFI'S CATERING,,222 S 7TH ST,,LOUISVILLE,KY,40202,CATERERS,38.2549,-85.7629,10/16/18 0:00,100,A,JARFI'S CATERING,
104915,1405889,DONALD'S CATERING,,2222 S 9TH ST,,LOUISVILLE,KY,40210,CATERERS,38.129,-85.463,8/16/18 0:00,97,A,DONALD'S CATERING,
102327,1424799,BHAVANA FOODS,,1841 PLANTSIDE DR,,LOUISVILLE,KY,40299,CATERERS,38.217,-85.571,10/30/18 0:00,100,A,BHAVANA FOODS,
91027,1422967,BRISTOL BAR and GRILLE,,1862 MELLWOOD AVE,,LOUISVILLE,KY,40206,CATERERS,38.2641,-85.721,10/22/18 0:00,100,A,BRISTOL BAR and GRILLE,
82396,1442386,KAREM'S DELI and CATERING,,3600 CHAMBERLAIN LN,,LOUISVILLE,KY,40241,CATERERS,38.303,-85.5527,1/15/19 0:00,98,A,KAREM'S DELI and CATERING,
73002,1442921,JU-LI CREATIONS,,8621 HI VIEW LN,,LOUISVILLE,KY,40272,CATERERS,38.1212,0,1/11/19 0:00,100,A,JU-LI CREATIONS,
96749,1458053,RAMSEY'S RECIPES,,3812 W BROADWAY,,LOUISVILLE,KY,40212,CATERERS,38.2497,-85.2497,3/25/19 0:00,98,A,RAMSEY'S RECIPES,
91027,1466032,BRISTOL BAR and GRILLE,,1862 MELLWOOD AVE,,LOUISVILLE,KY,40206,CATERERS,38.2641,-85.721,4/24/19 0:00,100,A,BRISTOL BAR and GRILLE,
102648,1441618,DINING WITH GABOR AND MORE,,1812 W MUHAMMAD ALI BLVD,,LOUISVILLE,KY,40203,CATERERS,38.2535,-85.7816,1/9/19 0:00,100,A,DINING WITH GABOR AND MORE,
102328,1448637,TRUE NORTH CATERING,,1841 PLANTSIDE DR,,LOUISVILLE,KY,40299,CATERERS,38.217,-85.571,2/8/19 0:00,100,A,TRUE NORTH CATERING,
100103,1449500,MACRO MAN,,1812 W MUHAMMAD ALI BLVD,,LOUISVILLE,KY,40203,CATERERS,38.2532,-85.7817,2/13/19 0:00,100,A,MACRO MAN,
98707,1463631,LUCRETIA'S KITCHEN,,1812 W MUHAMMAD ALI BLVD,,LOUISVILLE,KY,40203,CATERERS,38.2532,-85.7817,4/18/19 0:00,92,A,LUCRETIA'S KITCHEN,
85392,1463795,DINING ELEGANCE CATERERS,,10920 PLANTSIDE DR,,LOUISVILLE,KY,40299,CATERERS,38.123,-85.333,4/18/19 0:00,100,A,DINING ELEGANCE CATERERS,
88196,1444531,BRECKENRIDGE INN,,2800 BRECKENRIDGE LN,,LOUISVILLE,KY,40220,CATERERS,38.2253,-85.6321,1/24/19 0:00,99,A,BRECKENRIDGE INN,
106532,1450843,240 ADAMS,,240 ADAMS ST,,LOUISVILLE,KY,40206,CATERERS,38.2595,-85.7271,2/20/19 0:00,100,A,240 ADAMS,
100077,1459171,U OF L CATERING SERVICES,,2100 S FLOYD ST,,LOUISVILLE,KY,40208,CATERERS,38.2178,-85.7556,3/25/19 0:00,100,A,U OF L CATERING SERVICES,
105038,1455359,SONAL'S KITCHEN,,4746 BARDSTOWN RD,,LOUISVILLE,KY,40218,CATERERS,38.1794,-85.6238,3/12/19 0:00,94,A,SONAL'S KITCHEN,
106169,1463632,CLEM CREATIVE,,1812 W MUHAMMAD ALI BLVD,,LOUISVILLE,KY,40203,CATERERS,38.2536,-85.7816,4/18/19 0:00,96,A,CLEM CREATIVE,
99121,1449501,MARINATIONS CATERING,,1812 W MUHAMMAD ALI BLVD,,LOUISVILLE,KY,40203,CATERERS,38.2532,-85.7817,2/13/19 0:00,100,A,MARINATIONS CATERING,
106797,1449502,A LA CARTE,,1812 W MUHAMMAD ALI BLVD,,LOUISVILLE,KY,40203,CATERERS,38.2535,-85.7816,2/13/19 0:00,100,A,A LA CARTE,
59613,1449550,NAIMAN CATERING,,601 S SHELBY ST,,LOUISVILLE,KY,40202,CATERERS,38.2467,-85.739,2/13/19 0:00,97,A,NAIMAN CATERING,
104252,1463617,JARFI'S CATERING,,222 S 7TH ST,,LOUISVILLE,KY,40202,CATERERS,38.2549,-85.7629,4/18/19 0:00,99,A,JARFI'S CATERING,
104915,1463777,DONALD'S CATERING,,2222 S 9TH ST,,LOUISVILLE,KY,40210,CATERERS,38.129,-85.463,4/19/19 0:00,96,A,DONALD'S CATERING,
77581,1449771,MAGNOLIA FOODS CATERING,,621 W MAGNOLIA ST,,LOUISVILLE,KY,40208,CATERERS,38.2298,-85.7656,2/14/19 0:00,96,A,MAGNOLIA FOODS CATERING,
106996,1457643,FOXX CATERING,,2005 DOUGLASS BLVD,,LOUISVILLE,KY,40205,CATERERS,38.2253,-85.6936,3/21/19 0:00,100,A,FOXX CATERING,
99589,1468462,FESTIVAL CUISINE and SPIRITS,,473 ROBERTS AVE,,LOUISVILLE,KY,40214,CATERERS,38.1534,-85.7589,5/9/19 0:00,96,A,FESTIVAL CUISINE and SPIRITS,
102327,1467885,BHAVANA FOODS,,1841 PLANTSIDE DR,,LOUISVILLE,KY,40299,CATERERS,38.217,-85.571,5/7/19 0:00,100,A,BHAVANA FOODS,
102191,1457798,COMMONWEALTH CATERING LLC,,2401 WOODBOURNE AVE,,LOUISVILLE,KY,40205,CATERERS,38.2281,-85.6848,3/22/19 0:00,98,A,COMMONWEALTH CATERING LLC,
86636,1444558,GRACIOUS PLENTY CATERING,,2900 BROWNSBORO RD,,LOUISVILLE,KY,40206,CATERERS,38.26,-85.6881,1/24/19 0:00,100,A,GRACIOUS PLENTY CATERING,
104703,1464982,ELM CATERING,,1831 PLANTSIDE DR,,LOUISVILLE,KY,40299,CATERERS,38.2218,-85.5758,4/24/19 0:00,100,A,ELM CATERING,
89793,1451169,CHILDREN'S PANTRY,,7602 3RD STREET RD,,LOUISVILLE,KY,40214,CATERERS,38.1402,-85.7829,2/21/19 0:00,98,A,CHILDREN'S PANTRY,
75555,1448312,MIRABELLE GOURMET CATERING,,1309 CHRISTY AVE,,LOUISVILLE,KY,40204,CATERERS,38.24,-85.7304,2/7/19 0:00,97,A,MIRABELLE GOURMET CATERING,
107047,1461736,UNITED CATERING,,227 S 30TH ST,,LOUISVILLE,KY,40212,CATERERS,0,0,4/10/19 0:00,98,A,UNITED CATERING,
103459,1467467,YUMMY NOSH CATERING,,3506 TAYLOR BLVD,,LOUISVILLE,KY,40215,CATERERS,38.196,-85.7835,5/6/19 0:00,96,A,YUMMY NOSH CATERING,
86561,1458386,MASTERSON'S CATERING,,1231 LEXINGTON RD,,LOUISVILLE,KY,40204,CATERERS,38.2497,-85.7285,3/26/19 0:00,94,A,MASTERSON'S CATERING,
107309,1467922,LOVE AT FIRST BITE,,3739 LEXINGTON RD,,LOUISVILLE,KY,40207,CATERERS,38.2504,-85.7167,5/7/19 0:00,100,A,LOVE AT FIRST BITE,
106788,1447444,ROZ CATERING,,2204 DIXIE HWY,,LOUISVILLE,KY,40210,CATERERS,38.2185,-85.7949,2/5/19 0:00,100,A,ROZ CATERING,
107288,1466313,WELCOME TABLE,,2100 UPPER HUNTERS TRACE,,LOUISVILLE,KY,40216,CHARITABLE FOOD SERVICE (501(C)3 EXEMPT),38.1676,-85.8358,4/30/19 0:00,100,A,WELCOME TABLE,
84446,1381223,LOU. METRO YOUTH CENTER C/O MICHELLE SHARP,,720 W JEFFERSON ST,,LOUISVILLE,KY,40202,CONFINEMENT FACILITY FOOD SERVICE,38.2544,-85.7623,5/22/18 0:00,95,A,LOU. METRO YOUTH CENTER C/O MICHELLE SHARP,
84446,1436194,LOU. METRO YOUTH CENTER C/O MICHELLE SHARP,,720 W JEFFERSON ST,,LOUISVILLE,KY,40202,CONFINEMENT FACILITY FOOD SERVICE,38.2544,-85.7623,12/13/18 0:00,97,A,LOU. METRO YOUTH CENTER C/O MICHELLE SHARP,
75560,1386745,PROOF ON MAIN,,702 W MAIN ST,,LOUISVILLE,KY,40202,FOOD SERVICE,38.257,-85.7618,6/12/18 0:00,100,A,PROOF ON MAIN,
90128,1380419,QDOBA #2632,,312 S 4TH ST,,LOUISVILLE,KY,40202,FOOD SERVICE,38.2534,-85.7572,5/18/18 0:00,94,A,QDOBA #2632,
93095,1380462,MANSION MILLIONAIRE 6,,700 CENTRAL AVE,,LOUISVILLE,KY,40208,FOOD SERVICE,38.2023,-85.7701,5/18/18 0:00,100,A,MANSION MILLIONAIRE 6,
104880,1380527,STARTING GATE PANTRY 6,,700 CENTRAL AVE,,LOUISVILLE,KY,40208,FOOD SERVICE,38.2042,-85.7716,5/18/18 0:00,100,A,STARTING GATE PANTRY 6,
104879,1380529,STARTING GATE PANTRY 5,,700 CENTRAL AVE,,LOUISVILLE,KY,40208,FOOD SERVICE,38.2042,-85.7716,5/18/18 0:00,98,A,STARTING GATE PANTRY 5,
88495,1382791,SUBWAY,,5469 NEW CUT RD,,LOUISVILLE,KY,40214,FOOD SERVICE,38.1463,-85.7751,5/29/18 0:00,99,A,SUBWAY,
99404,1382820,"LIFE BAR, LLC",,3046 BARDSTOWN RD,,LOUISVILLE,KY,40205,FOOD SERVICE,38.213,-85.1738,5/29/18 0:00,100,A,"LIFE BAR, LLC",
48150,1384698,COURTYARD CAFE BY MASTERSONS,,680 S 4TH ST,,LOUISVILLE,KY,40202,FOOD SERVICE,38.2466,-85.7585,6/4/18 0:00,96,A,COURTYARD CAFE BY MASTERSONS,
62821,1387009,UPPER HIGHLANDS SWIM CLUB,,2411 PARKDALE AVE,,LOUISVILLE,KY,40220,FOOD SERVICE,38.2356,-85.6208,6/12/18 0:00,97,A,UPPER HIGHLANDS SWIM CLUB,
83104,1380855,JASON'S DELI,,4600 SHELBYVILLE RD,,LOUISVILLE,KY,40207,FOOD SERVICE,38.2503,-85.6294,5/21/18 0:00,100,A,JASON'S DELI,
81481,1380961,HARDEE'S,,3459 TAYLOR BLVD,,LOUISVILLE,KY,40215,FOOD SERVICE,38.1972,-85.7828,5/21/18 0:00,98,A,HARDEE'S,
101786,1383053,WHITE CASTLE  #13,,3701 S 7TH ST,,LOUISVILLE,KY,40216,FOOD SERVICE,38.1967,-85.7991,5/29/18 0:00,96,A,WHITE CASTLE  #13,
86218,1385040,SUNERGOS COFFEE,,306 W WOODLAWN AVE,,LOUISVILLE,KY,40214,FOOD SERVICE,38.1816,-85.7664,6/5/18 0:00,98,A,SUNERGOS COFFEE,
105036,1381225,RABBIT HOLE DISTILLERY,,711 E JEFFERSON ST,,LOUISVILLE,KY,40202,FOOD SERVICE,38.2523,-85.7394,5/22/18 0:00,100,A,RABBIT HOLE DISTILLERY,
98639,1381324,PEKING CITY EXPRESS,,4000 DUTCHMANS LN,,LOUISVILLE,KY,40207,FOOD SERVICE,38.2334,-85.6348,5/22/18 0:00,100,A,PEKING CITY EXPRESS,
99662,1383267,JB'S PUB,,307 CENTRAL AVE,,LOUISVILLE,KY,40208,FOOD SERVICE,38.2051,-85.7646,5/30/18 0:00,99,A,JB'S PUB,
60707,1383271,WHITE CASTLE #28,,7200 CEDAR SPRINGS BLVD,,LOUISVILLE,KY,40291,FOOD SERVICE,38.1446,-85.5852,5/30/18 0:00,100,A,WHITE CASTLE #28,
84451,1383274,#52 SPORTS BAR and KITCHEN,,6551 PARAMOUNT PARK DR,,LOUISVILLE,KY,40213,FOOD SERVICE,38.155,-85.7126,5/30/18 0:00,96,A,#52 SPORTS BAR and KITCHEN,
89684,1385056,SUBWAY,,10512 FISCHER PARK DR,,LOUISVILLE,KY,40241,FOOD SERVICE,38.2966,-85.5578,6/5/18 0:00,98,A,SUBWAY,
35172,1385058,STANDARD CC POOL SNACK BAR,,8208 STANDARD CLUB LN,,LOUISVILLE,KY,40241,FOOD SERVICE,38.2931,-85.5977,6/5/18 0:00,97,A,STANDARD CC POOL SNACK BAR,
84135,1385059,WOODS OF ST THOMAS CLUB,,6701 FALLEN LEAF CIRCLE,,LOUISVILLE,KY,40241,FOOD SERVICE,38.2915,-85.6243,6/5/18 0:00,99,A,WOODS OF ST THOMAS CLUB,
86330,1385061,ZOE'S KITCHEN,,4126 SUMMIT PLAZA DR,,LOUISVILLE,KY,40241,FOOD SERVICE,38.3063,-85.5774,6/5/18 0:00,97,A,ZOE'S KITCHEN,
100049,1385081,CARALIS ROTISSERIE CHICKEN,,9148 TAYLORSVILLE RD,,LOUISVILLE,KY,40299,FOOD SERVICE,38.2121,-85.589,6/5/18 0:00,99,A,CARALIS ROTISSERIE CHICKEN,
99415,1385092,DUNKIN DONUTS,,4611 DIXIE HWY,,LOUISVILLE,KY,40216,FOOD SERVICE,38.1775,-85.8189,6/4/18 0:00,97,A,DUNKIN DONUTS,
102225,1385096,ALADDIN'S CAFE,,1613 BARDSTOWN RD,,LOUISVILLE,KY,40204,FOOD SERVICE,38.1388,-85.422,6/5/18 0:00,97,A,ALADDIN'S CAFE,
99344,1385098,CHICK-FIL-A,,6630 DIXIE HWY,,LOUISVILLE,KY,40258,FOOD SERVICE,38.1543,-85.8356,6/5/18 0:00,98,A,CHICK-FIL-A,
86553,1387404,WAFFLE HOUSE #1887,,10563 DIXIE HWY,,LOUISVILLE,KY,40272,FOOD SERVICE,38.1014,-85.8705,6/13/18 0:00,95,A,WAFFLE HOUSE #1887,
105246,1387417,CAFE MIMOSA,,1543 BARDSTOWN RD,,LOUISVILLE,KY,40205,FOOD SERVICE,38.2315,-85.7069,6/13/18 0:00,96,A,CAFE MIMOSA,
90496,1387427,QDOBA #2753,,1831 BLANKENBAKER PKWY,,LOUISVILLE,KY,40299,FOOD SERVICE,38.2155,-85.5381,6/13/18 0:00,99,A,QDOBA #2753,
100440,1387429,MCDONALD'S #4924,,3100 POPLAR LEVEL RD,,LOUISVILLE,KY,40219,FOOD SERVICE,38.2115,-85.7209,6/13/18 0:00,93,A,MCDONALD'S #4924,
34812,1387430,ORIENTAL STAR,,4212 BISHOP LN,,LOUISVILLE,KY,40218,FOOD SERVICE,38.2003,-85.6867,6/13/18 0:00,94,A,ORIENTAL STAR,
84063,1387432,ZANZABAR,,2100 S PRESTON ST,,LOUISVILLE,KY,40217,FOOD SERVICE,38.2175,-85.7458,6/13/18 0:00,98,A,ZANZABAR,
34897,1381549,FRISCH'S BIG BOY #153,,1710 LINCOLN AVE,,LOUISVILLE,KY,40213,FOOD SERVICE,38.1971,0,5/22/18 0:00,98,A,FRISCH'S BIG BOY #153,
90602,1383432,VFW POST 2921,,2902 S 7TH ST,,LOUISVILLE,KY,40216,FOOD SERVICE,38.2043,-85.7907,5/30/18 0:00,96,A,VFW POST 2921,
41292,1385119,OLE HICKORY PIT BAR B Q,,6106 OLD SHEPHERDSVILLE RD,,LOUISVILLE,KY,40228,FOOD SERVICE,38.1628,-85.6604,6/5/18 0:00,94,A,OLE HICKORY PIT BAR B Q,
99670,1385128,FIESTA TIME AMIGOS,,8123 BARDSTOWN RD,,LOUISVILLE,KY,40291,FOOD SERVICE,38.1292,-85.5763,6/5/18 0:00,98,A,FIESTA TIME AMIGOS,
65058,1387547,QUALITY INN and SUITES,,311 E GAULBERT AVE,,LOUISVILLE,KY,40208,FOOD SERVICE,38.2239,-85.7529,6/14/18 0:00,98,A,QUALITY INN and SUITES,
35203,1388025,INDI'S,,4419 CANE RUN RD,,LOUISVILLE,KY,40216,FOOD SERVICE,38.1967,-85.8403,6/14/18 0:00,96,A,INDI'S,
34009,1388034,UPTOWN CAFE,,1624 BARDSTOWN RD,,LOUISVILLE,KY,40205,FOOD SERVICE,38.2301,-85.704,6/14/18 0:00,94,A,UPTOWN CAFE,
47951,1378434,VIETNAM KITCHEN,,5339 MITSCHER AVE,,LOUISVILLE,KY,40214,FOOD SERVICE,38.1706,-85.77,5/10/18 0:00,98,A,VIETNAM KITCHEN,
84449,1378446,BISTRO 42,,6021 TIMBER RIDGE DR,,PROSPECT,KY,40059,FOOD SERVICE,38.3353,-85.6235,5/10/18 0:00,100,A,BISTRO 42,
34685,1381728,ROBBEN'S ROOST,,5906 SIX MILE LN,,LOUISVILLE,KY,40220,FOOD SERVICE,38.195,-85.6507,5/22/18 0:00,100,A,ROBBEN'S ROOST,
33164,1381732,WOODHAVEN COUNTRY CLUB,,7200 WOODHAVEN RD,,LOUISVILLE,KY,40291,FOOD SERVICE,38.1722,-85.6275,5/23/18 0:00,92,A,WOODHAVEN COUNTRY CLUB,
72441,1381733,AFC SUSHI @ KROGER #389,,5929 TIMBER RIDGE DR,,PROPSECT,KY,40059,FOOD SERVICE,38.3403,-85.6214,5/23/18 0:00,100,A,AFC SUSHI @ KROGER #389,
94876,1381783,4TH AVE UNITED METHODIST CHURCH,,318 W ST. CATHERINE ST,,LOUISVILLE,KY,40203,FOOD SERVICE,38.2371,-85.7595,5/22/18 0:00,95,A,4TH AVE UNITED METHODIST CHURCH,
92244,1381784,8 TASTE OF CHINA,,1167 S 4TH ST,,LOUISVILLE,KY,40203,FOOD SERVICE,38.2351,-85.7602,5/22/18 0:00,90,A,8 TASTE OF CHINA,
83179,1381792,PUERTO VALLARTA,,7813 BEULAH CHURCH RD,,LOUISVILLE,KY,40228,FOOD SERVICE,38.1235,-85.6148,5/23/18 0:00,97,A,PUERTO VALLARTA,
103887,1385404,DUNKIN DONUTS,,2815 FERN VALLEY RD,,LOUISVILLE,KY,40213,FOOD SERVICE,38.1574,-85.7112,6/6/18 0:00,93,A,DUNKIN DONUTS,
90012,1385409,SONIC DRIVE-IN,,3641 SPRINGHURST BLVD,,LOUISVILLE,KY,40241,FOOD SERVICE,38.3801,-85.5591,6/6/18 0:00,99,A,SONIC DRIVE-IN,
99856,1385417,WING ZONE,,3038 HUNSINGER LN,,LOUISVILLE,KY,40220,FOOD SERVICE,38.2177,-85.6248,6/6/18 0:00,99,A,WING ZONE,
75562,1385423,FRISCH'S BIG BOY #203,,6209 BARDSTOWN RD,,LOUISVILLE,KY,40291,FOOD SERVICE,38.1554,-85.5891,6/6/18 0:00,97,A,FRISCH'S BIG BOY #203,
89770,1385424,DAIRY QUEEN,,6205 BARDSTOWN RD,,LOUISVILLE,KY,40291,FOOD SERVICE,38.1558,-85.5894,6/6/18 0:00,97,A,DAIRY QUEEN,
57089,1388263,PT'S SHOW CLUB,,227 E MARKET ST,,LOUISVILLE,KY,40202,FOOD SERVICE,38.2549,-85.7491,6/15/18 0:00,100,A,PT'S SHOW CLUB,
82544,1378463,40 ACRES and A MULE,,1800 DIXIE HWY,,LOUISVILLE,KY,40210,FOOD SERVICE,38.2246,-85.7919,5/10/18 0:00,91,A,40 ACRES and A MULE,
93714,1378478,ZAXBY'S,,10715 DIXIE HWY,,LOUISVILLE,KY,40272,FOOD SERVICE,38.981,-85.8724,5/10/18 0:00,99,A,ZAXBY'S,
77062,1378563,SILVER SPOON,,604 S 3RD ST,,LOUISVILLE,KY,40202,FOOD SERVICE,38.2485,0,5/10/18 0:00,94,A,SILVER SPOON,
71031,1378621,MCALISTER'S #1135,,2400 LIME KILN LN,,LOUISVILLE,KY,40222,FOOD SERVICE,38.2865,-85.6292,5/11/18 0:00,95,A,MCALISTER'S #1135,
34396,1383909,HUNTING CREEK COUNTRY CLUB,,6807 FOXCRAFT RD,,PROSPECT,KY,40059,FOOD SERVICE,38.3448,-85.6035,5/31/18 0:00,97,A,HUNTING CREEK COUNTRY CLUB,
102587,1385489,DIAMOND STATION,,2280 BARDSTOWN RD,,LOUISVILLE,KY,40205,FOOD SERVICE,38.224,-85.6915,6/6/18 0:00,99,A,DIAMOND STATION,
56535,1382000,MOBY DICK,,11210 PRESTON HWY,,LOUISVILLE,KY,40229,FOOD SERVICE,38.866,-85.6692,5/21/18 0:00,99,A,MOBY DICK,
33403,1382001,BLUE LICK OPTIMIST,,4611 MUD LN,,LOUISVILLE,KY,40229,FOOD SERVICE,38.892,-85.692,5/21/18 0:00,97,A,BLUE LICK OPTIMIST,
69071,1383911,DOMINO'S PIZZA #1433,,5400 PRESTON HWY,,LOUISVILLE,KY,40213,FOOD SERVICE,38.1705,-85.709,5/31/18 0:00,97,A,DOMINO'S PIZZA #1433,
99650,1383912,TACO LOCO,,5622 PRESTON HWY,,LOUISVILLE,KY,40219,FOOD SERVICE,38.1672,-85.7057,5/31/18 0:00,100,A,TACO LOCO,
63349,1378958,ATRIA SPRINGDALE,,4501 SPRINGDALE RD,,LOUISVILLE,KY,40241,FOOD SERVICE,38.3115,-85.5863,5/14/18 0:00,100,A,ATRIA SPRINGDALE,
94642,1378969,JOY LUCK ASIAN CUISINE,,1285 BARDSTOWN RD,,LOUISVILLE,KY,40204,FOOD SERVICE,38.2359,-85.7157,5/10/18 0:00,92,A,JOY LUCK ASIAN CUISINE,
96979,1378980,CHINA CASTLE,,7420 OLD 3RD STREET RD,,LOUISVILLE,KY,40214,FOOD SERVICE,38.1335,-85.79,5/14/18 0:00,98,A,CHINA CASTLE,
94723,1382022,GRALEHAUS,,1001 BAXTER AVE,,LOUISVILLE,KY,40204,FOOD SERVICE,38.2991,-85.7231,5/23/18 0:00,98,A,GRALEHAUS,
36392,1382023,CAFE 360 and MANTRA LOUNGE,,1582 BARDSTOWN RD,,LOUISVILLE,KY,40205,FOOD SERVICE,38.2308,-85.7051,5/23/18 0:00,92,A,CAFE 360 and MANTRA LOUNGE,
72218,1382026,AFC SUSHI @ KROGER #339,,2440 BARDSTOWN RD,,LOUISVILLE,KY,40205,FOOD SERVICE,38.2232,-85.6875,5/24/18 0:00,100,A,AFC SUSHI @ KROGER #339,
34884,1384014,HURSTBOURNE CLUB SNACKBAR,,9000 HURSTBOURNE CLUB LN,,LOUISVILLE,KY,40222,FOOD SERVICE,38.2396,-85.5903,5/31/18 0:00,93,A,HURSTBOURNE CLUB SNACKBAR,
62737,1384016,PLAINVIEW SWIM and TENNIS CENTER,,10235 TIMBERWOOD CIRCLE,,LOUISVILLE,KY,40223,FOOD SERVICE,38.2315,-85.566,5/31/18 0:00,100,A,PLAINVIEW SWIM and TENNIS CENTER,
93574,1384021,ROOF TOP GRILL,,708 LOUIS COLEMAN JR. DR,,LOUISVILLE,KY,40211,FOOD SERVICE,38.2492,-85.8087,5/31/18 0:00,95,A,ROOF TOP GRILL,
38833,1384022,CLUB CEDAR,,416 S 26TH ST,,LOUISVILLE,KY,40212,FOOD SERVICE,38.2565,-85.7943,5/31/18 0:00,95,A,CLUB CEDAR,
93861,1385779,CHIPOTLE,,10333 WESTPORT RD,,LOUISVILLE,KY,40241,FOOD SERVICE,38.2932,-85.5606,6/7/18 0:00,100,A,CHIPOTLE,
50073,1385788,HOOPS GRILL and SPORTS,,6733 STRAWBERRY LN,,LOUISVILLE,KY,40214,FOOD SERVICE,38.158,-85.764,6/7/18 0:00,95,A,HOOPS GRILL and SPORTS,
34844,1382124,MOBY DICK,,2700 S 3RD ST,,LOUISVILLE,KY,40208,FOOD SERVICE,38.2099,-85.7635,5/24/18 0:00,95,A,MOBY DICK,
88047,1382126,DAIRY QUEEN,,2058 PORTLAND AVE,,LOUISVILLE,KY,40212,FOOD SERVICE,38.2681,-85.7821,5/24/18 0:00,90,A,DAIRY QUEEN,
33441,1385794,LEE'S FAMOUS RECIPE,,9813 OLD 3RD STREET RD,,LOUISVILLE,KY,40272,FOOD SERVICE,38.1135,-85.836,6/7/18 0:00,92,A,LEE'S FAMOUS RECIPE,
101651,1379509,MandM BARBEQUE,,1401 BLUEGRASS AVE,,LOUISVILLE,KY,40215,FOOD SERVICE,38.1797,-85.7867,5/15/18 0:00,100,A,MandM BARBEQUE,
97663,1379514,BUFFALO WILD WINGS,,4917 OUTER LOOP,,LOUISVILLE,KY,40219,FOOD SERVICE,38.1379,-85.6663,5/15/18 0:00,98,A,BUFFALO WILD WINGS,
33906,1379518,VINCENZO'S,,150 S 5TH ST,,LOUISVILLE,KY,40201,FOOD SERVICE,38.2557,-85.7586,5/15/18 0:00,96,A,VINCENZO'S,
90681,1379519,GORDON BIERSCH BREWERY RESTAURANT,,400 S 4TH ST,,LOUISVILLE,KY,40203,FOOD SERVICE,38.2528,-85.7573,5/15/18 0:00,96,A,GORDON BIERSCH BREWERY RESTAURANT,
79666,1379583,SUBWAY,,719 S BROOK ST,,LOUISVILLE,KY,40203,FOOD SERVICE,38.2448,-85.7516,5/15/18 0:00,95,A,SUBWAY,
34239,1382309,MORRISON SENIOR DINING,,10510 LAGRANGE RD,,LOUISVILLE,KY,40223,FOOD SERVICE,38.2716,-85.5574,5/25/18 0:00,100,A,MORRISON SENIOR DINING,
82901,1382310,DOMINO'S PIZZA,,9551 US HWY 42,,PROSPECT,KY,40059,FOOD SERVICE,38.3396,-85.5565,5/25/18 0:00,95,A,DOMINO'S PIZZA,
32534,1382317,KRAZY DAVES NEIGHBORHOOD PUB and GRILL,,2817 DEL RIO PL,,LOUISVILLE,KY,40220,FOOD SERVICE,38.2146,-85.6544,5/24/18 0:00,96,A,KRAZY DAVES NEIGHBORHOOD PUB and GRILL,
97357,1382333,BRENDON'S CATCH 23,,505 S 4TH ST,,LOUISVILLE,KY,40202,FOOD SERVICE,38.2509,-85.7575,5/24/18 0:00,99,A,BRENDON'S CATCH 23,
83052,1384234,RAMADA DOWNTOWN NORTH,,1041 ZORN AVE,,LOUISVILLE,KY,40207,FOOD SERVICE,38.2763,-85.6982,6/1/18 0:00,98,A,RAMADA DOWNTOWN NORTH,
95292,1384236,KY KINGDOM SCOOPS,,937 PHILLIPS LN,,LOUISVILLE,KY,40209,FOOD SERVICE,38.2003,-85.7407,6/1/18 0:00,100,A,KY KINGDOM SCOOPS,
95291,1384239,KY KINGDOM TWISTED PRETZELS,,937 PHILLIPS LN,,LOUISVILLE,KY,40209,FOOD SERVICE,38.2003,-85.7407,6/1/18 0:00,100,A,KY KINGDOM TWISTED PRETZELS,
34898,1384302,PESTO'S ITALIAN RESTAURANT,,566 S 5TH ST,,LOUISVILLE,KY,40203,FOOD SERVICE,38.2493,-85.7597,5/31/18 0:00,94,A,PESTO'S ITALIAN RESTAURANT,
90074,1384307,MT. FUJI,,309 W CARDINAL BLVD,,LOUISVILLE,KY,40208,FOOD SERVICE,38.2206,-85.2613,6/1/18 0:00,98,A,MT. FUJI,
102637,1384313,KY KINGDOM SHIVER ME CHICKEN TENDERS,,937 PHILLIPS LN,,LOUISVILLE,KY,40209,FOOD SERVICE,38.1989,-85.7418,6/1/18 0:00,100,A,KY KINGDOM SHIVER ME CHICKEN TENDERS,
95298,1384314,KY KINGDOM TOUCAN'S BEACHSIDE GRILL,,937 PHILLIPS LN,,LOUISVILLE,KY,40209,FOOD SERVICE,38.2003,-85.7407,6/1/18 0:00,100,A,KY KINGDOM TOUCAN'S BEACHSIDE GRILL,
99649,1384315,KY KINGDOM LOUIE'S FRESH MARKET,,937 PHILLIPS LN,,LOUISVILLE,KY,40209,FOOD SERVICE,38.1989,-85.7418,6/1/18 0:00,100,A,KY KINGDOM LOUIE'S FRESH MARKET,
95316,1384316,KY KINGDOM PIZZERIA VILLAGIO,,937 PHILLIPS LN,,LOUISVILLE,KY,40209,FOOD SERVICE,38.2003,-86.545,6/1/18 0:00,98,A,KY KINGDOM PIZZERIA VILLAGIO,
56766,1385894,TRIXIE'S KNOCKOUT SALOON and GRILL,,6112 PRESTON HWY,,LOUISVILLE,KY,40219,FOOD SERVICE,38.1616,-85.7002,6/7/18 0:00,99,A,TRIXIE'S KNOCKOUT SALOON and GRILL,
34351,1385895,TRIXIE'S,,6114 PRESTON HWY,,LOUISVILLE,KY,40219,FOOD SERVICE,38.1615,-85.7002,6/7/18 0:00,98,A,TRIXIE'S,
89364,1379867,#1 CHINESE RESTAURANT,,5011 MUD LN,,LOUISVILLE,KY,40229,FOOD SERVICE,38.889,-85.6691,5/16/18 0:00,98,A,#1 CHINESE RESTAURANT,
62284,1379905,PENN STATION #5,,1933 BLANKENBAKER PKWY,,LOUISVILLE,KY,40299,FOOD SERVICE,38.2136,-85.5386,5/15/18 0:00,99,A,PENN STATION #5,
34789,1382376,LOUISVILLE BOAT CLUB SNACK BAR,,4200 RIVER RD,,LOUISVILLE,KY,40207,FOOD SERVICE,38.2919,-85.6766,5/25/18 0:00,93,A,LOUISVILLE BOAT CLUB SNACK BAR,
95326,1384356,KY KINGDOM DIPPIN DOTS,,937 PHILLIPS LN,,LOUISVILLE,KY,40209,FOOD SERVICE,38.2003,-86.7407,6/1/18 0:00,99,A,KY KINGDOM DIPPIN DOTS,
95296,1384358,KY KINGDOM CACTUS JACKS,,937 PHILLIPS LN,,LOUISVILLE,KY,40209,FOOD SERVICE,38.2003,-85.7407,6/1/18 0:00,100,A,KY KINGDOM CACTUS JACKS,
101309,1386039,MIRIN,,2013 FRANKFORT AVE,,LOUISVILLE,KY,40206,FOOD SERVICE,38.2547,-85.7096,6/8/18 0:00,97,A,MIRIN,
67437,1386106,FAZOLI'S,,9433 VIKING CENTER DR,,LOUISVILLE,KY,40222,FOOD SERVICE,38.2432,-85.5776,6/8/18 0:00,97,A,FAZOLI'S,
33854,1386129,BROWN MAIN KITCHEN,,335 W BROADWAY,,LOUISVILLE,KY,40202,FOOD SERVICE,38.2465,-85.758,6/7/18 0:00,97,A,BROWN MAIN KITCHEN,
102825,1386130,YAFA CAFE,,612 S 5TH ST,,LOUISVILLE,KY,40202,FOOD SERVICE,38.2486,-85.7598,6/8/18 0:00,98,A,YAFA CAFE,
104165,1386131,MCDONALD'S,,301 UNIVERSITY BLVD,,LOUISVILLE,KY,40217,FOOD SERVICE,38.2144,-85.7508,6/8/18 0:00,97,A,MCDONALD'S,
96656,1386141,WARD 426,,426 BAXTER AVE,,LOUISVILLE,KY,40204,FOOD SERVICE,38.2487,-85.7308,6/8/18 0:00,97,A,WARD 426,
97358,1380003,MERRYWEATHER,,1101 LYDIA ST,,LOUISVILLE,KY,40217,FOOD SERVICE,38.2245,-85.7371,5/16/18 0:00,96,A,MERRYWEATHER,
97132,1380071,CON HUEVOS,,2339 FRANKFORT AVE,,LOUISVILLE,KY,40206,FOOD SERVICE,38.2537,-85.8754,5/17/18 0:00,100,A,CON HUEVOS,
92095,1380103,MANGO'S MEXICAN GRILL,,4632 HENDRIK DR,,LOUISVILLE,KY,40299,FOOD SERVICE,38.186,-85.6086,5/17/18 0:00,99,A,MANGO'S MEXICAN GRILL,
75206,1384511,HOMEMADE ICE CREAM and PIE KITCHEN,,3737 LEXINGTON RD,,LOUISVILLE,KY,40207,FOOD SERVICE,38.2525,-85.659,6/4/18 0:00,93,A,HOMEMADE ICE CREAM and PIE KITCHEN,
91695,1384512,ZOE'S KITCHEN,,3723 LEXINGTON RD,,LOUISVILLE,KY,40207,FOOD SERVICE,38.7523,-85.6592,6/4/18 0:00,98,A,ZOE'S KITCHEN,
79068,1386182,AFC SUSHI @ KROGER #753,,1265 GOSS AVE,,LOUISVILLE,KY,40217,FOOD SERVICE,38.2264,-85.7306,6/8/18 0:00,98,A,AFC SUSHI @ KROGER #753,
50199,1386214,DISMAS CHARITIES,,1501 LYTLE ST,,LOUISVILLE,KY,40203,FOOD SERVICE,38.2616,-85.7746,6/8/18 0:00,97,A,DISMAS CHARITIES,
98756,1380119,QDOBA #2937,,4921 OUTER LOOP,,LOUISVILLE,KY,40219,FOOD SERVICE,38.1379,-85.6663,5/17/18 0:00,97,A,QDOBA #2937,
94801,1380122,JIM PATTERSON STADIUM #2,,3015 S 3RD ST,,LOUISVILLE,KY,40208,FOOD SERVICE,38.2049,-85.7639,5/17/18 0:00,98,A,JIM PATTERSON STADIUM #2,
33659,1380136,HOMEMADE ICE CREAM,,2525 BARDSTOWN RD,,LOUISVILLE,KY,40205,FOOD SERVICE,38.2227,-85.683,5/17/18 0:00,97,A,HOMEMADE ICE CREAM,
34213,1380137,PAPA JOHN'S #008,,2301 BARDSTOWN RD,,LOUISVILLE,KY,40205,FOOD SERVICE,38.2242,0,5/17/18 0:00,99,A,PAPA JOHN'S #008,
55889,1384606,PAPA JOHN'S #22,,5010 PRESTON HWY,,LOUISVILLE,KY,40219,FOOD SERVICE,38.1748,-85.7134,6/4/18 0:00,96,A,PAPA JOHN'S #22,
101735,1384608,SUBWAY #11525,,4945 BROWNSBORO RD,,LOUISVILLE,KY,40222,FOOD SERVICE,38.2833,-85.6298,6/4/18 0:00,99,A,SUBWAY #11525,
77580,1384610,LONGHORN STEAKHOUSE #287,,9700 VON ALLMEN CT,,LOUISVILLE,KY,40241,FOOD SERVICE,38.3116,-85.5736,6/4/18 0:00,97,A,LONGHORN STEAKHOUSE #287,
95809,1384612,IMPELLIZZERI'S,,4933 OLD BROWNSBORO RD,,LOUISVILLE,KY,40222,FOOD SERVICE,38.2673,-85.6607,6/4/18 0:00,100,A,IMPELLIZZERI'S,
99951,1384613,INDI'S,,3353 FERN VALLEY RD,,LOUISVILLE,KY,40213,FOOD SERVICE,38.157,-85.7023,6/4/18 0:00,92,A,INDI'S,
104354,1384614,QUAIL CHASE GOLF CLUB,,7000 COOPER CHAPEL RD,,LOUISVILLE,KY,40229,FOOD SERVICE,38.1086,-85.6475,6/4/18 0:00,100,A,QUAIL CHASE GOLF CLUB,
92897,1384648,QDOBA #2837,,6403 BARDSTOWN RD,,LOUISVILLE,KY,40291,FOOD SERVICE,38.1527,-85.5983,6/4/18 0:00,96,A,QDOBA #2837,
95358,1386632,FUN FOOD KITCHEN,,4104 MURPHY LN,,LOUISVILLE,KY,40241,FOOD SERVICE,38.3039,-85.5339,6/11/18 0:00,95,A,FUN FOOD KITCHEN,
82842,1386634,ROOTIES SPORTS BAR and GRILLE,,12205 WESTPORT RD,,LOUISVILLE,KY,40245,FOOD SERVICE,38.3049,-85.5413,6/11/18 0:00,97,A,ROOTIES SPORTS BAR and GRILLE,
33419,1383910,HUNTING CREEK POOL CONCESSION,,6807 FOXCRAFT RD,,PROSPECT,KY,40059,FOOD SERVICE,38.3448,-85.6035,5/31/18 0:00,98,A,HUNTING CREEK POOL CONCESSION,
90826,1379866,BURGER KING #891,,11300 PRESTON HWY,,LOUISVILLE,KY,40229,FOOD SERVICE,38.861,-85.6688,5/16/18 0:00,94,A,BURGER KING #891,
69999,1379876,PENN STATION #8,,2017 S HURSTBOURNE PKWY,,LOUISVILLE,KY,40220,FOOD SERVICE,38.2168,-85.587,5/11/18 0:00,100,A,PENN STATION #8,
90869,1379885,BURGER KING #889,,2700 CRITTENDEN DR,,LOUISVILLE,KY,40209,FOOD SERVICE,38.205,-85.751,5/16/18 0:00,96,A,BURGER KING #889,
103872,1379949,NOUVELLE,,214 S CLAY ST,,LOUISVILLE,KY,40202,FOOD SERVICE,38.2528,-85.7403,5/16/18 0:00,100,A,NOUVELLE,
33245,1385705,CHINA INN,,1925 S 4TH ST,,LOUISVILLE,KY,40202,FOOD SERVICE,38.2198,-85.7626,6/5/18 0:00,96,A,CHINA INN,
96941,1385716,LYNN'S CAFE,,1839 FRANKFORT AVE,,LOUISVILLE,KY,40206,FOOD SERVICE,38.2577,-85.7141,6/7/18 0:00,100,A,LYNN'S CAFE,
67341,1385777,INDI'S,,5009 S 3RD ST,,LOUISVILLE,KY,40214,FOOD SERVICE,38.1741,-85.7668,6/7/18 0:00,94,A,INDI'S,
34687,1381719,SOUTH PARK COUNTRY CLUB,,915 SOUTH PARK RD,,LOUISVILLE,KY,40118,FOOD SERVICE,38.1053,-85.725,5/23/18 0:00,95,A,SOUTH PARK COUNTRY CLUB,
68592,1381740,WHITE CASTLE #36,,12006 DIXIE HWY,,LOUISVILLE,KY,40272,FOOD SERVICE,38.811,-85.883,5/22/18 0:00,95,A,WHITE CASTLE #36,
103059,1381794,CHINA CHEF,,7813 BEULAH CHURCH RD,,LOUISVILLE,KY,40228,FOOD SERVICE,38.1357,-85.6126,5/23/18 0:00,96,A,CHINA CHEF,
91707,1378361,O'CHARLEY'S,,1901 S HURSTBOURNE PKWY,,LOUISVILLE,KY,40220,FOOD SERVICE,38.2181,-85.5813,5/10/18 0:00,96,A,O'CHARLEY'S,
51009,1378442,BARRELL OF FUN ICE CREAM,,9421 SMYRNA RD,,LOUISVILLE,KY,40229,FOOD SERVICE,38.1108,-85.6447,5/10/18 0:00,100,A,BARRELL OF FUN ICE CREAM,
95300,1384237,KY KINGDOM TRIPLE TREATS,,937 PHILLIPS LN,,LOUISVILLE,KY,40209,FOOD SERVICE,38.2003,-85.7407,6/1/18 0:00,98,A,KY KINGDOM TRIPLE TREATS,
95294,1384238,KY KINGDOM AUNT B'S / KING LOUIE'S,,937 PHILLIPS LN,,LOUISVILLE,KY,40209,FOOD SERVICE,38.2003,-85.7407,6/1/18 0:00,99,A,KY KINGDOM AUNT B'S / KING LOUIE'S,
96091,1384243,ARCTIC SCOOP,,841 S HURSTBOURNE PKWY,,LOUISVILLE,KY,40222,FOOD SERVICE,38.2346,-85.5769,6/1/18 0:00,99,A,ARCTIC SCOOP,
92726,1384259,ACAPULCO,,5404 ANTLE DR,,LOUISVILLE,KY,40229,FOOD SERVICE,38.871,-85.6655,6/1/18 0:00,92,A,ACAPULCO,
101399,1384298,FLOR DE JALISCO,,2900 S 7TH ST,,LOUISVILLE,KY,40216,FOOD SERVICE,38.2079,-85.7915,6/3/18 0:00,94,A,FLOR DE JALISCO,
99707,1380123,EHRLER'S,,3015 S 2ND ST,,LOUISVILLE,KY,40208,FOOD SERVICE,38.2047,-85.7631,5/17/18 0:00,98,A,EHRLER'S,
59457,1380160,TUMBLEWEED,,9701 DIXIE HWY,,LOUISVILLE,KY,40272,FOOD SERVICE,38.1152,-85.8601,5/17/18 0:00,95,A,TUMBLEWEED,
96157,1382005,LandJ CAFE,,6017 TIMBER RIDGE DR,,PROSPECT,KY,40059,FOOD SERVICE,38.3392,-85.6233,5/24/18 0:00,97,A,LandJ CAFE,
89685,1382032,SEIDENFADEN'S TAVERN,,1134 E BRECKINRIDGE ST,,LOUISVILLE,KY,40204,FOOD SERVICE,38.2392,-85.7328,5/24/18 0:00,100,A,SEIDENFADEN'S TAVERN,
41070,1378480,BREWSKEES,,5507 VALLEY STATION RD,,LOUISVILLE,KY,40272,FOOD SERVICE,38.1077,0,5/10/18 0:00,94,A,BREWSKEES,
96245,1378518,STARBUCKS,,101 S 5TH ST,,LOUISVILLE,KY,40202,FOOD SERVICE,38.2561,-85.7578,5/10/18 0:00,100,A,STARBUCKS,
33694,1378650,MORE SHENANIGAN'S IRISH,,4521 BARDSTOWN RD,,LOUISVILLE,KY,40218,FOOD SERVICE,38.1823,0,5/10/18 0:00,96,A,MORE SHENANIGAN'S IRISH,
97522,1384354,KY KINGDOM TACO TEQUILA,,937 PHILLIPS LN,,LOUISVILLE,KY,40209,FOOD SERVICE,38.1967,-85.739,6/1/18 0:00,98,A,KY KINGDOM TACO TEQUILA,
95274,1384357,KY KINGDOM COMMISSARY,,937 PHILLIPS LN,,LOUISVILLE,KY,40209,FOOD SERVICE,38.2003,-85.7407,6/1/18 0:00,96,A,KY KINGDOM COMMISSARY,
65215,1380336,JUMBO BUFFET,,2731 S HURSTBOURNE PKWY,,LOUISVILLE,KY,40220,FOOD SERVICE,38.2112,-85.5957,5/18/18 0:00,88,A,JUMBO BUFFET,
102583,1380398,BURGER KING #22793,,9512 PRESTON HWY,,LOUISVILLE,KY,40229,FOOD SERVICE,38.113,-85.6758,5/18/18 0:00,98,A,BURGER KING #22793,
95712,1380439,SKATE ODYSSEY LLC,,7846 DIXIE HWY,,LOUISVILLE,KY,40258,FOOD SERVICE,38.1372,-85.8434,5/18/18 0:00,100,A,SKATE ODYSSEY LLC,
94094,1382297,EL MOLCAJETE,,8106 PRESTON HWY,,LOUISVILLE,KY,40219,FOOD SERVICE,38.1343,-85.6846,5/25/18 0:00,91,A,EL MOLCAJETE,
103824,1378668,INDI'S,,3820 W MARKET ST,,LOUISVILLE,KY,40212,FOOD SERVICE,38.2616,-84.8531,5/11/18 0:00,98,A,INDI'S,
104910,1378675,RIVERPORT GRUB and PUB,,7017 GLOBAL DR,,LOUISVILLE,KY,40258,FOOD SERVICE,38.1397,-85.8887,5/11/18 0:00,96,A,RIVERPORT GRUB and PUB,
92373,1384647,HIBACHI SUSHI BUFFET,,5316 BARDSTOWN RD,,LOUISVILLE,KY,40291,FOOD SERVICE,38.1663,-85.6049,6/4/18 0:00,97,A,HIBACHI SUSHI BUFFET,
74264,1380594,IN SEAT 3RD FLOOR,,700 CENTRAL AVE,,LOUISVILLE,KY,40208,FOOD SERVICE,38.2042,-85.7718,5/18/18 0:00,100,A,IN SEAT 3RD FLOOR,
33291,1380596,FOOD COURT,,700 CENTRAL AVE,,LOUISVILLE,KY,40208,FOOD SERVICE,38.2042,-85.7718,5/18/18 0:00,97,A,FOOD COURT,
61470,1382301,NEW SILVER HEIGHTS BINGO,,9206 BLUE LICK RD,,LOUISVILLE,KY,40229,FOOD SERVICE,38.1153,-85.6905,5/25/18 0:00,96,A,NEW SILVER HEIGHTS BINGO,
46435,1378945,ST. MATTHEWS LITTLE LEAGUE,,220 TEN PIN LN,,LOUISVILLE,KY,40207,FOOD SERVICE,38.2516,-85.6241,5/14/18 0:00,99,A,ST. MATTHEWS LITTLE LEAGUE,
90033,1378951,MALE HIGH SCHOOL FOOTBALL CONCESSION,,4400 PRESTON HWY,,LOUISVILLE,KY,40213,FOOD SERVICE,38.1844,-85.7226,5/14/18 0:00,100,A,MALE HIGH SCHOOL FOOTBALL CONCESSION,
100780,1378952,PAUL COX STADIUM CONCESSION,,425 KENWOOD DR,,LOUISVILLE,KY,40214,FOOD SERVICE,38.1625,-85.7737,5/14/18 0:00,100,A,PAUL COX STADIUM CONCESSION,
56579,1378971,BREADWORKS,,2204 DUNDEE RD,,LOUISVILLE,KY,40205,FOOD SERVICE,38.2242,-85.6941,5/11/18 0:00,100,A,BREADWORKS,
101746,1378972,COLD STONE CREAMERY,,976 BRECKENRIDGE LN,,LOUISVILLE,KY,40207,FOOD SERVICE,38.135,-85.383,5/11/18 0:00,92,A,COLD STONE CREAMERY,
99374,1378974,RAISING CANE'S,,1250 BARDSTOWN RD,,LOUISVILLE,KY,40204,FOOD SERVICE,38.2354,-85.7172,5/11/18 0:00,96,A,RAISING CANE'S,
101318,1378984,HOMEMADE ICE CREAM and PIE KITCHEN,,4810 DIXIE HWY,,LOUISVILLE,KY,40216,FOOD SERVICE,38.17277,-85.82565,5/14/18 0:00,97,A,HOMEMADE ICE CREAM and PIE KITCHEN,
104835,1379009,TIM TAM TAVERN,,1022 CLARKS LN,,LOUISVILLE,KY,40217,FOOD SERVICE,38.219,-85.73,5/14/18 0:00,98,A,TIM TAM TAVERN,
72741,1385126,PIZZA HUT,,8131 BARDSTOWN RD,,LOUISVILLE,KY,40291,FOOD SERVICE,38.1292,-85.5751,6/5/18 0:00,96,A,PIZZA HUT,
95651,1385141,RECOVERY ZONE,,708 MAGAZINE ST,,LOUISVILLE,KY,40202,FOOD SERVICE,38.2482,-85.7632,6/4/18 0:00,98,A,RECOVERY ZONE,
90698,1380984,JASMIN BAKERY,,2201 STEIER LN,,LOUISVILLE,KY,40218,FOOD SERVICE,38.1148,-85.394,5/18/18 0:00,96,A,JASMIN BAKERY,
45368,1380985,BOOTLEG BARBEQUE,,9704 BARDSTOWN RD,,LOUISVILLE,KY,40291,FOOD SERVICE,38.993,-85.5622,5/18/18 0:00,94,A,BOOTLEG BARBEQUE,
76476,1382788,STARBUCKS #10454,,4801 OUTER LOOP,,LOUISVILLE,KY,40219,FOOD SERVICE,38.1415,-85.6708,5/29/18 0:00,99,A,STARBUCKS #10454,
105033,1379240,EHRLERS ICE CREAM,,201 E MAIN ST,,LOUISVILLE,KY,40202,FOOD SERVICE,38.2562,-85.7496,5/14/18 0:00,98,A,EHRLERS ICE CREAM,
95790,1385405,RED LOBSTER,,4639 OUTER LOOP,,LOUISVILLE,KY,40219,FOOD SERVICE,38.1384,-85.6771,6/6/18 0:00,98,A,RED LOBSTER,
105092,1385406,AFC SUSHI @ KROGER #366,,5001 MUD LN,,LOUISVILLE,KY,40229,FOOD SERVICE,38.883,-85.6701,6/6/18 0:00,98,A,AFC SUSHI @ KROGER #366,
93971,1381000,KATE'S DELI,,6400 DUTCHMANS PKWY,,LOUISVILLE,KY,40205,FOOD SERVICE,38.2308,-85.6392,5/18/18 0:00,99,A,KATE'S DELI,
86435,1381032,JERRY GREEN and FRIENDS,,2800 BRECKENRIDGE LN,,LOUISVILLE,KY,40220,FOOD SERVICE,38.2253,-85.6361,5/21/18 0:00,100,A,JERRY GREEN and FRIENDS,
33287,1381080,LEVY CD JOCKEY CLUB DELI,,700 CENTRAL AVE,,LOUISVILLE,KY,40208,FOOD SERVICE,38.2042,-85.7718,5/18/18 0:00,97,A,LEVY CD JOCKEY CLUB DELI,
33295,1381081,LEVY CD MAIN KITCHEN,,700 CENTRAL AVE,,LOUISVILLE,KY,40208,FOOD SERVICE,38.2042,-85.7718,5/18/18 0:00,95,A,LEVY CD MAIN KITCHEN,
100655,1382808,JEFF'S BURGER SHACK,,14126 DIXIE HWY,,LOUISVILLE,KY,40272,FOOD SERVICE,38.515,-85.8952,5/29/18 0:00,100,A,JEFF'S BURGER SHACK,
77885,1379513,EL NOPAL,,6521 PARAMOUNT PARK DR,,LOUISVILLE,KY,40213,FOOD SERVICE,38.1558,-85.7121,5/15/18 0:00,96,A,EL NOPAL,
98787,1379538,TABLE,,1800 PORTLAND AVE,,LOUISVILLE,KY,40203,FOOD SERVICE,38.2645,-85.7776,5/15/18 0:00,100,A,TABLE,
102330,1379539,FARM TO FORK,,2425 PORTLAND AVE,,LOUISVILLE,KY,40212,FOOD SERVICE,38.2706,-85.7883,5/15/18 0:00,100,A,FARM TO FORK,
100859,1385421,AFC SUSHI @ KROGER #785,,4915 DIXIE HWY,,LOUISVILLE,KY,40216,FOOD SERVICE,0,0,6/6/18 0:00,100,A,AFC SUSHI @ KROGER #785,
101402,1385422,"BABIE BAC'Z, LLC",,8533 TERRY RD,,LOUISVILLE,KY,40258,FOOD SERVICE,0,0,6/6/18 0:00,100,A,"BABIE BAC'Z, LLC",
95126,1381226,AFC SUSHI @ KROGER #346,,3039 BRECKENRIDGE LN,,LOUISVILLE,KY,40220,FOOD SERVICE,38.2177,-85.366,5/22/18 0:00,100,A,AFC SUSHI @ KROGER #346,
102331,1381289,SULLIVAN'S TAP HOUSE,,3929 SHELBYVILLE RD,,LOUISVILLE,KY,40207,FOOD SERVICE,38.253,-85.6538,5/21/18 0:00,90,A,SULLIVAN'S TAP HOUSE,
83344,1381323,QUILLS COFFEE,,930 BAXTER AVE,,LOUISVILLE,KY,40204,FOOD SERVICE,38.223,-85.6847,5/22/18 0:00,97,A,QUILLS COFFEE,
83581,1379636,FRAZIER  HISTORY MUSEUM,,829 W MAIN ST,,LOUISVILLE,KY,40202,FOOD SERVICE,38.2574,-85.7635,5/15/18 0:00,96,A,FRAZIER  HISTORY MUSEUM,
51670,1385778,THAI CAFE,,2226 HOLIDAY MANOR CENTER,,LOUISVILLE,KY,40222,FOOD SERVICE,38.2827,0,6/7/18 0:00,98,A,THAI CAFE,
94568,1385795,OSAKA JAPAN ONE,,4819 DIXIE HWY,,LOUISVILLE,KY,40216,FOOD SERVICE,38.1719,-85.5695,6/7/18 0:00,97,A,OSAKA JAPAN ONE,
34692,1378435,KENBOWL LANES,,7021 SOUTHSIDE DR,,LOUISVILLE,KY,40214,FOOD SERVICE,38.1548,-85.7643,5/10/18 0:00,99,A,KENBOWL LANES,
86320,1378436,TRUNG NGUYEN CAFE,,284 EVANGELINE AVE,,LOUISVILLE,KY,40214,FOOD SERVICE,38.1604,-85.7638,5/10/18 0:00,92,A,TRUNG NGUYEN CAFE,
101541,1383275,CHEDDAR'S SCRATCH KITCHEN #2142,,3521 OUTER LOOP,,LOUISVILLE,KY,40219,FOOD SERVICE,38.137,-85.6962,5/30/18 0:00,93,A,CHEDDAR'S SCRATCH KITCHEN #2142,
98686,1383284,GATTI 'S PIZZA,,10035 DIXIE HWY,,LOUISVILLE,KY,40272,FOOD SERVICE,38.1086,-85.864,5/30/18 0:00,96,A,GATTI 'S PIZZA,
99748,1379868,JIMMY JOHN'S,,7500 PRESTON HWY,,LOUISVILLE,KY,40219,FOOD SERVICE,38.143,-85.6897,5/16/18 0:00,99,A,JIMMY JOHN'S,
71011,1379877,COLD STONE CREAMERY,,2015 S HURSTBOURNE PKWY,,LOUISVILLE,KY,40220,FOOD SERVICE,38.2168,-85.5869,5/11/18 0:00,100,A,COLD STONE CREAMERY,
82716,1379887,CHINA COAST,,4954 MANSLICK RD,,LOUISVILLE,KY,40216,FOOD SERVICE,38.1718,-85.7978,5/16/18 0:00,95,A,CHINA COAST,
66108,1378473,SHAWNEE COMPLEX,,230 SOUTHWESTERN PKWY,,LOUISVILLE,KY,40212,FOOD SERVICE,38.2644,0,5/10/18 0:00,100,A,SHAWNEE COMPLEX,
95132,1378564,WEI WEI CHINESE EXPRESS,,526 S 5TH ST,,LOUISVILLE,KY,40202,FOOD SERVICE,38.2504,-85.7598,5/10/18 0:00,91,A,WEI WEI CHINESE EXPRESS,
102017,1378569,MERCURY BALLROOM,,611 S 4TH ST,,LOUISVILLE,KY,40202,FOOD SERVICE,38.2481,-85.7576,5/10/18 0:00,99,A,MERCURY BALLROOM,
89891,1378682,QUILLS COFFEE,,327 W CARDINAL BLVD,,LOUISVILLE,KY,40208,FOOD SERVICE,38.2207,-85.7616,5/11/18 0:00,98,A,QUILLS COFFEE,
82250,1380061,HILTON GARDEN INN,,9850 PARK PLAZA AVE,,LOUISVILLE,KY,40241,FOOD SERVICE,38.3112,-85.5802,5/17/18 0:00,95,A,HILTON GARDEN INN,
79497,1380120,EAST CHINA,,5621 OUTER LOOP,,LOUISVILLE,KY,40219,FOOD SERVICE,38.1396,-85.6563,5/17/18 0:00,97,A,EAST CHINA,
96839,1380335,FIRST WATCH,,201 S HURSTBOURNE PKWY,,LOUISVILLE,KY,40222,FOOD SERVICE,38.2444,-85.5761,5/18/18 0:00,100,A,FIRST WATCH,
34233,1380399,HOLY SMOKES BBQ,,7508 PRESTON HWY,,LOUISVILLE,KY,40219,FOOD SERVICE,38.1423,-85.6895,5/18/18 0:00,94,A,HOLY SMOKES BBQ,
32609,1380437,CAPTAIN D'S #3532,,10101 DIXIE HWY,,LOUISVILLE,KY,40272,FOOD SERVICE,38.1088,-85.8654,5/18/18 0:00,93,A,CAPTAIN D'S #3532,
74263,1380461,TURF WINN KITCHEN,,700 CENTRAL AVE,,LOUISVILLE,KY,40208,FOOD SERVICE,38.2042,-85.7718,5/18/18 0:00,99,A,TURF WINN KITCHEN,
103993,1380475,MCDONALD'S #1733,,4445 CANE RUN RD,,LOUISVILLE,KY,40216,FOOD SERVICE,38.1955,-85.8417,5/18/18 0:00,95,A,MCDONALD'S #1733,
103972,1380577,KFC,,3280 TAYLOR BLVD,,LOUISVILLE,KY,40215,FOOD SERVICE,38.2029,-85.7812,5/15/18 0:00,99,A,KFC,
102176,1380597,NORTHEAST SPORTS BAR KITCHEN,,700 CENTRAL AVE,,LOUISVILLE,KY,40208,FOOD SERVICE,38.204,-85.7721,5/18/18 0:00,100,A,NORTHEAST SPORTS BAR KITCHEN,
89909,1380882,EAGLE PUB,,9802 BUNSEN PKWY,,LOUISVILLE,KY,40299,FOOD SERVICE,38.2162,-85.576,5/21/18 0:00,100,A,EAGLE PUB,
88830,1381002,PANERA BREAD,,1534 BARDSTOWN RD,,LOUISVILLE,KY,40205,FOOD SERVICE,38.1354,-85.423,5/18/18 0:00,94,A,PANERA BREAD,
102322,1378959,888 GREAT WALL,,9464 BROWNSBORO RD,,LOUISVILLE,KY,40241,FOOD SERVICE,38.3079,-85.5472,5/14/18 0:00,100,A,888 GREAT WALL,
92407,1378970,GAME,,2295 LEXINGTON RD,,LOUISVILLE,KY,40206,FOOD SERVICE,38.2459,-85.7047,5/10/18 0:00,95,A,GAME,
94491,1378973,TACO LUCHADOR,,938 BAXTER AVE,,LOUISVILLE,KY,40204,FOOD SERVICE,38.2413,-85.7251,5/11/18 0:00,93,A,TACO LUCHADOR,
105109,1381056,VOA FREEDOM HOUSE #3,,1025 S 2ND ST,,LOUISVILLE,KY,40203,FOOD SERVICE,38.2434,-85.7644,5/21/18 0:00,99,A,VOA FREEDOM HOUSE #3,
105112,1381062,BLACKBEARD EXPRESSO,,718 W MAIN ST,,LOUISVILLE,KY,40202,FOOD SERVICE,38.257,-85.7824,5/21/18 0:00,98,A,BLACKBEARD EXPRESSO,
57727,1381082,WINNER'S CIRCLE SUITE KITCHEN,,700 CENTRAL AVE,,LOUISVILLE,KY,40208,FOOD SERVICE,38.2042,-85.7718,5/22/18 0:00,97,A,WINNER'S CIRCLE SUITE KITCHEN,
34581,1379579,AUDUBON COUNTRY CLUB,,3265 ROBIN RD,,LOUISVILLE,KY,40213,FOOD SERVICE,38.1999,-85.7289,5/15/18 0:00,97,A,AUDUBON COUNTRY CLUB,
76934,1379582,WING ZONE,,905 HESS LN,,LOUISVILLE,KY,40217,FOOD SERVICE,38.2053,-85.7359,5/15/18 0:00,97,A,WING ZONE,
88819,1381548,BARRET BAR,,1012 BARRET AVE,,LOUISVILLE,KY,40204,FOOD SERVICE,38.142,-85.4345,5/22/18 0:00,100,A,BARRET BAR,
69072,1383906,AUNTIE ANNE'S,,4801 OUTER LOOP,,LOUISVILLE,KY,40219,FOOD SERVICE,38.1415,-85.6708,5/31/18 0:00,97,A,AUNTIE ANNE'S,
100307,1383908,PICNIC,,11505 PARK RD,,LOUISVILLE,KY,40223,FOOD SERVICE,38.2657,-85.541,5/31/18 0:00,98,A,PICNIC,
99445,1387383,CHINA 1,,126 BRECKENRIDGE LN,,LOUISVILLE,KY,40207,FOOD SERVICE,38.252,-85.6551,6/13/18 0:00,96,A,CHINA 1,
101213,1387385,BEHAR CAFE,,282 EVANGELINE AVE,,LOUISVILLE,KY,40214,FOOD SERVICE,38.16011,-85.76407,6/13/18 0:00,94,A,BEHAR CAFE,
78333,1387387,BEECHMONT YOUTH SPORTS,,5401 SOUTHSIDE DR,,LOUISVILLE,KY,40214,FOOD SERVICE,38.1702,-85.7639,6/13/18 0:00,99,A,BEECHMONT YOUTH SPORTS,
82602,1381059,DIXIE CHICKEN,,1785 W OAK ST,,LOUISVILLE,KY,40203,FOOD SERVICE,38.2374,-85.7863,5/21/18 0:00,95,A,DIXIE CHICKEN,
33292,1381078,PADDOCK GRILL,,700 CENTRAL AVE,,LOUISVILLE,KY,40208,FOOD SERVICE,38.2042,-85.7718,5/18/18 0:00,97,A,PADDOCK GRILL,
98869,1381229,HOME RUN BURGER,,2723 S HURSTBOURNE PKWY,,LOUISVILLE,KY,40299,FOOD SERVICE,0,0,5/22/18 0:00,97,A,HOME RUN BURGER,
33403,1385049,BLUE LICK OPTIMIST,,4611 MUD LN,,LOUISVILLE,KY,40229,FOOD SERVICE,38.892,-85.692,6/5/18 0:00,98,A,BLUE LICK OPTIMIST,
101736,1385097,WW COUSINS,,900 DUPONT RD,,LOUISVILLE,KY,40207,FOOD SERVICE,38.2349,-85.6399,6/5/18 0:00,93,A,WW COUSINS,
99883,1385099,HIBACHI BUFFET,,5372 DIXIE HWY,,LOUISVILLE,KY,40216,FOOD SERVICE,38.1567,-85.8363,6/5/18 0:00,94,A,HIBACHI BUFFET,
64221,1387410,PAPA JOHN'S #20,,5911 TIMBER RIDGE DR,,PROPSECT,KY,40059,FOOD SERVICE,38.3396,-85.6208,6/13/18 0:00,99,A,PAPA JOHN'S #20,
32553,1387434,CAPTAIN D'S #3329,,3937 DIXIE HWY,,LOUISVILLE,KY,40217,FOOD SERVICE,38.1936,-85.8067,6/13/18 0:00,91,A,CAPTAIN D'S #3329,
100004,1389179,CHIPOTLE,,420 S HURSTBOURNE PKWY,,LOUISVILLE,KY,40222,FOOD SERVICE,38.2405,-85.5779,6/19/18 0:00,98,A,CHIPOTLE,
33648,1381290,PANDA CHINA INC,,9543 US HWY 42,,PROSPECT,KY,40059,FOOD SERVICE,38.3444,-85.6174,5/21/18 0:00,94,A,PANDA CHINA INC,
52942,1381295,BURGER KING #542,,3701 DIANN MARIE RD,,LOUISVILLE,KY,40241,FOOD SERVICE,38.2997,-85.5426,5/22/18 0:00,100,A,BURGER KING #542,
91775,1385407,FAIRDALE YOUTH BASEBALL CONCESSION,,709 FAIRDALE RD,,FAIRDALE,KY,40118,FOOD SERVICE,38.1064,-85.7567,6/6/18 0:00,97,A,FAIRDALE YOUTH BASEBALL CONCESSION,
54075,1385418,O'CHARLEY'S,,4404 DIXIE HWY,,LOUISVILLE,KY,40216,FOOD SERVICE,38.1834,-85.8152,6/6/18 0:00,96,A,O'CHARLEY'S,
91086,1385419,BURGER KING #886,,3930 DIXIE HWY,,LOUISVILLE,KY,40216,FOOD SERVICE,38.1944,-85.807,6/6/18 0:00,93,A,BURGER KING #886,
58862,1387541,I.D.E.A.,,1386 S 6TH ST,,LOUISVILLE,KY,40208,FOOD SERVICE,38.2297,0,6/13/18 0:00,100,A,I.D.E.A.,
100133,1381489,CUP OF JOY,,2507 BANK ST,,LOUISVILLE,KY,40212,FOOD SERVICE,38.2686,-85.7884,5/22/18 0:00,96,A,CUP OF JOY,
68711,1381569,ARBY'S #7349,,2804 CRITTENDEN DR,,LOUISVILLE,KY,40209,FOOD SERVICE,38.2025,-85.7512,5/22/18 0:00,92,A,ARBY'S #7349,
89673,1381737,DOUBLE DRAGON #5,,2600 W BROADWAY,,LOUISVILLE,KY,40211,FOOD SERVICE,38.248,-85.7956,5/23/18 0:00,92,A,DOUBLE DRAGON #5,
83668,1385921,SKYVIEW PARK,,2800 WATTERSON TRAIL,,LOUISVILLE,KY,40299,FOOD SERVICE,38.2049,-85.5594,6/7/18 0:00,99,A,SKYVIEW PARK,
36905,1378447,KFC Y052-042,,9487 WESTPORT RD,,LOUISVILLE,KY,40242,FOOD SERVICE,38.2867,-85.5758,5/10/18 0:00,99,A,KFC Y052-042,
37633,1381999,SUBWAY,,6501 OLD SHEPHERDSVILLE RD,,LOUISVILLE,KY,40228,FOOD SERVICE,38.155,-85.6592,5/21/18 0:00,98,A,SUBWAY,
33646,1382123,DOMINO'S PIZZA #1432,,6803 SOUTHSIDE DR,,LOUISVILLE,KY,40214,FOOD SERVICE,38.1592,-85.7645,5/24/18 0:00,94,A,DOMINO'S PIZZA #1432,
103992,1382125,MCDONALD'S,,520 N 22ND ST,,LOUISVILLE,KY,40203,FOOD SERVICE,38.2673,-85.7836,5/24/18 0:00,95,A,MCDONALD'S,
62735,1386100,OUTBACK STEAKHOUSE,,9498 BROWNSBORO RD,,LOUISVILLE,KY,40241,FOOD SERVICE,38.3068,-85.5731,6/8/18 0:00,98,A,OUTBACK STEAKHOUSE,
105193,1386104,FOOD FOR A BETTER YOU,,9300 BLAIRWOOD RD,,LOUISVILLE,KY,40222,FOOD SERVICE,38.2263,-85.5843,6/8/18 0:00,98,A,FOOD FOR A BETTER YOU,
105192,1386105,BLAIRWOOD GRILL,,9300 BLAIRWOOD RD,,LOUISVILLE,KY,40222,FOOD SERVICE,38.2263,-85.5843,6/8/18 0:00,96,A,BLAIRWOOD GRILL,
92917,1387963,HAPPY DRAGON,,12613 TAYLORSVILLE RD,,LOUISVILLE,KY,40299,FOOD SERVICE,38.1895,-85.519,6/14/18 0:00,95,A,HAPPY DRAGON,
33070,1387976,CAPTAIN'S QUARTERS,,5700 CAPTAINS QUARTERS RD,,HARRODS CREEK,KY,40027,FOOD SERVICE,38.3313,-85.6426,6/14/18 0:00,95,A,CAPTAIN'S QUARTERS,
93157,1387979,PRESTON CROSSINGS SBARRO,,9700 PRESTON CROSSINGS BLVD,,LOUISVILLE,KY,40229,FOOD SERVICE,38.1083,-85.6716,6/14/18 0:00,100,A,PRESTON CROSSINGS SBARRO,
103167,1378568,VIRTUE,,103 W OAK ST,,LOUISVILLE,KY,40202,FOOD SERVICE,38.2348,-85.7556,5/10/18 0:00,99,A,VIRTUE,
102016,1378570,PALACE THEATER,,625 S 4TH ST,,LOUISVILLE,KY,40202,FOOD SERVICE,38.2481,-85.7576,5/10/18 0:00,97,A,PALACE THEATER,
35070,1378571,BODY SHOP,,421 W CHESTNUT ST,,LOUISVILLE,KY,40202,FOOD SERVICE,38.2493,-85.7589,5/10/18 0:00,97,A,BODY SHOP,
93344,1378649,BORSALINO,,3825 BARDSTOWN RD,,LOUISVILLE,KY,40218,FOOD SERVICE,38.196,-85.6537,5/10/18 0:00,100,A,BORSALINO,
88826,1386132,THOROBRED LOUNGE,,3634 S 7TH ST,,LOUISVILLE,KY,40216,FOOD SERVICE,38.1974,-86.799,6/8/18 0:00,96,A,THOROBRED LOUNGE,
99540,1386140,ANOTHER PLACE SANDWICH SHOP,,119 S 7TH ST,,LOUISVILLE,KY,40202,FOOD SERVICE,38.2563,-85.7615,6/8/18 0:00,93,A,ANOTHER PLACE SANDWICH SHOP,
78571,1386144,CHAMPS ROLLERDROME HURSTBOURNE,,9851 LAGRANGE RD,,LOUISVILLE,KY,40223,FOOD SERVICE,38.2717,-85.5701,6/8/18 0:00,99,A,CHAMPS ROLLERDROME HURSTBOURNE,
88476,1386189,KNIGHTS OF COLUMBUS (ASSUMPTION COUNCIL #4473),,4801 PROGRESS BLVD,,LOUISVILLE,KY,40218,FOOD SERVICE,38.18,-85.6523,6/10/18 0:00,100,A,KNIGHTS OF COLUMBUS (ASSUMPTION COUNCIL #4473),
102425,1386219,L'BADS ICE CREAM PARLOR,,2606 W MARKET ST,,LOUISVILLE,KY,40212,FOOD SERVICE,38.2594,-85.7941,6/8/18 0:00,93,A,L'BADS ICE CREAM PARLOR,
33398,1388026,AMERICAN LEGION DIXIE POST #1,,2107 CRUMS LN,,LOUISVILLE,KY,40216,FOOD SERVICE,38.1954,-85.8109,6/14/18 0:00,99,A,AMERICAN LEGION DIXIE POST #1,
35085,1388027,AMERICAN LEGION DIXIE POST 2,,2107 CRUMS LN,,LOUISVILLE,KY,40216,FOOD SERVICE,38.1954,-85.8109,6/14/18 0:00,92,A,AMERICAN LEGION DIXIE POST 2,
102820,1389773,BUTCHERTOWN PIZZA HALL,,1301 STORY AVE,,LOUISVILLE,KY,40206,FOOD SERVICE,38.2563,-85.7279,6/19/18 0:00,92,A,BUTCHERTOWN PIZZA HALL,
99855,1389774,NOOSH NOSH,,4816 BROWNSBORO CT,,LOUISVILLE,KY,40207,FOOD SERVICE,38.2777,-85.6391,6/19/18 0:00,94,A,NOOSH NOSH,
63550,1389794,MCDONALD'S,,6214 OLD SHEPHERDSVILLE RD,,LOUISVILLE,KY,40228,FOOD SERVICE,38.158,-85.6606,6/20/18 0:00,98,A,MCDONALD'S,
73595,1389795,COMFORT SUITES,,6535 PARAMOUNT PARK DR,,LOUISVILLE,KY,40213,FOOD SERVICE,38.1551,-85.7121,6/15/18 0:00,97,A,COMFORT SUITES,
104023,1389798,MCDONALD'S #6834,,8220 PRESTON HWY,,LOUISVILLE,KY,40219,FOOD SERVICE,38.1329,-85.6842,6/20/18 0:00,98,A,MCDONALD'S #6834,
34366,1389799,ARBY'S #325,,7708 PRESTON HWY,,LOUISVILLE,KY,40219,FOOD SERVICE,38.1394,-85.6878,6/20/18 0:00,100,A,ARBY'S #325,
92328,1389255,HOT LEGS,,13601 DIXIE HWY,,LOUISVILLE,KY,40272,FOOD SERVICE,38.585,-85.8885,6/19/18 0:00,96,A,HOT LEGS,
32660,1389264,JEWISH COMMUNITY CENTER KITCHEN,,3600 DUTCHMANS LN,,LOUISVILLE,KY,40205,FOOD SERVICE,38.2255,-85.6504,6/19/18 0:00,98,A,JEWISH COMMUNITY CENTER KITCHEN,
100731,1389359,PAPA JOHN'S,,2100 S FLOYD ST,,LOUISVILLE,KY,40208,FOOD SERVICE,38.2178,-85.7556,6/19/18 0:00,99,A,PAPA JOHN'S,
100432,1378968,HOPCAT,,1064 BARDSTOWN RD,,LOUISVILLE,KY,40204,FOOD SERVICE,38.2384,-85.7217,5/10/18 0:00,93,A,HOPCAT,
92583,1378981,SOUTHERN EXPRESS,,418 W OAK ST,,LOUISVILLE,KY,40203,FOOD SERVICE,38.2351,-85.7612,5/14/18 0:00,90,A,SOUTHERN EXPRESS,
89072,1378983,COMFY COW,,339 W CARDINAL BLVD,,LOUISVILLE,KY,40208,FOOD SERVICE,38.2207,-85.7618,5/14/18 0:00,100,A,COMFY COW,
104053,1388260,GREEN DISTRICT SALADS,,225 S 5TH ST,,LOUISVILLE,KY,40202,FOOD SERVICE,38.2547,-85.7583,6/12/18 0:00,98,A,GREEN DISTRICT SALADS,
95429,1388275,BLAZE PIZZA,,4600 SHELBYVILLE RD,,LOUISVILLE,KY,40207,FOOD SERVICE,38.25,-85.6307,6/15/18 0:00,98,A,BLAZE PIZZA,
33545,1389245,PIZZA HUT #013420,,5366 NEW CUT RD,,LOUISVILLE,KY,40214,FOOD SERVICE,38.151,-85.7767,6/19/18 0:00,99,A,PIZZA HUT #013420,
60880,1379238,MAIN EATERY,,643 W MAIN ST,,LOUISVILLE,KY,40202,FOOD SERVICE,38.2573,-85.7613,5/14/18 0:00,98,A,MAIN EATERY,
104062,1388322,O'S COOL ICE CREAM,,2807 DIXIE HWY,,LOUISVILLE,KY,40216,FOOD SERVICE,38.2104,-85.7972,6/15/18 0:00,98,A,O'S COOL ICE CREAM,
34512,1388327,QUICK WOK,,801 W BROADWAY,,LOUISVILLE,KY,40203,FOOD SERVICE,38.2471,-85.7654,6/15/18 0:00,96,A,QUICK WOK,
65180,1379506,HIBACHI SUSHI GRILL,,5729 PRESTON HWY,,LOUISVILLE,KY,40219,FOOD SERVICE,38.1671,-85.702,5/15/18 0:00,88,A,HIBACHI SUSHI GRILL,
96124,1379523,TEA STATION CHINESE BISTRO,,9422 NORTON COMMONS BLVD,,PROSPECT,KY,40059,FOOD SERVICE,38.3248,-85.566,5/15/18 0:00,97,A,TEA STATION CHINESE BISTRO,
96571,1379524,NOODLES and COMPANY,,4302 SUMMIT PLAZA DR,,LOUISVILLE,KY,40241,FOOD SERVICE,38.3078,-85.5791,5/15/18 0:00,99,A,NOODLES and COMPANY,
33602,1379529,MCDONALD'S #6859,,7426 OLD 3RD STREET RD,,LOUISVILLE,KY,40214,FOOD SERVICE,38.1448,-85.7772,5/15/18 0:00,91,A,MCDONALD'S #6859,
102690,1379535,PHO CAFE ON BARDSTOWN,,1704 BARDSTOWN RD,,LOUISVILLE,KY,40205,FOOD SERVICE,38.134,-85.422,5/15/18 0:00,96,A,PHO CAFE ON BARDSTOWN,
35163,1379536,SYL'S,,2403 W BROADWAY,,LOUISVILLE,KY,40211,FOOD SERVICE,38.2496,-85.7917,5/15/18 0:00,96,A,SYL'S,
91978,1383272,BUFFALO WILD WINGS,,10206 WESTPORT RD,,LOUISVILLE,KY,40241,FOOD SERVICE,38.2921,-85.3617,5/30/18 0:00,100,A,BUFFALO WILD WINGS,
33122,1386635,EL NOPAL,,9451 WESTPORT RD,,LOUISVILLE,KY,40241,FOOD SERVICE,38.2879,-85.5773,6/11/18 0:00,100,A,EL NOPAL,
105097,1386636,GREAT CHINA CAFE,,10494 WESTPORT RD,,LOUISVILLE,KY,40241,FOOD SERVICE,38.2935,-85.5581,6/11/18 0:00,100,A,GREAT CHINA CAFE,
82543,1386640,MCDONALD'S,,4306 BARDSTOWN RD,,LOUISVILLE,KY,40218,FOOD SERVICE,38.186,-85.6357,6/8/18 0:00,98,A,MCDONALD'S,
83187,1386649,BROOK HOSPITAL DUPONT,,1405 BROWNS LN,,LOUISVILLE,KY,40207,FOOD SERVICE,38.2379,-85.6327,6/11/18 0:00,100,A,BROOK HOSPITAL DUPONT,
104036,1386653,MCDONALD'S,,3340 TAYLOR BLVD,,LOUISVILLE,KY,40215,FOOD SERVICE,38.2004,-85.783,6/11/18 0:00,94,A,MCDONALD'S,
90679,1386667,BJ'S SPORTS PUB,,8238 DIXIE HWY,,LOUISVILLE,KY,40258,FOOD SERVICE,38.1657,-85.8326,6/8/18 0:00,95,A,BJ'S SPORTS PUB,
59008,1386671,TUMBLEWEED,,3602 BARDSTOWN RD,,LOUISVILLE,KY,40218,FOOD SERVICE,38.2023,-85.6648,6/11/18 0:00,95,A,TUMBLEWEED,
99021,1386680,SAM'S FAST FOOD,,2101 W BROADWAY,,LOUISVILLE,KY,40211,FOOD SERVICE,38.2494,-85.7867,6/11/18 0:00,97,A,SAM'S FAST FOOD,
33399,1386685,WICKS PIZZA,,975 BAXTER AVE,,LOUISVILLE,KY,40204,FOOD SERVICE,38.2407,-85.7238,6/7/18 0:00,90,A,WICKS PIZZA,
104031,1379637,RED HOT ROASTERS,,1007 E MAIN ST,,LOUISVILLE,KY,40206,FOOD SERVICE,38.2543,-85.7333,5/15/18 0:00,100,A,RED HOT ROASTERS,
34855,1383395,SHENANIGAN'S,,1611 NORRIS PLACE,,LOUISVILLE,KY,40205,FOOD SERVICE,38.2272,-85.7083,5/30/18 0:00,100,A,SHENANIGAN'S,
105208,1383425,AFRICAN COFFEE SHOP,,737 S 8TH ST,,LOUISVILLE,KY,40203,FOOD SERVICE,38.2452,-85.7648,5/29/18 0:00,99,A,AFRICAN COFFEE SHOP,
89901,1386705,RIVER ROAD BBQ,,3017 RIVER RD,,LOUISVILLE,KY,40207,FOOD SERVICE,38.2787,-85.6975,6/8/18 0:00,100,A,RIVER ROAD BBQ,
84787,1386706,LOUISVILLE BEER STORE,,746 E MARKET ST,,LOUISVILLE,KY,40202,FOOD SERVICE,38.2529,-85.7383,6/8/18 0:00,100,A,LOUISVILLE BEER STORE,
87355,1386709,SAFFRON'S,,131 W MARKET ST,,LOUISVILLE,KY,40202,FOOD SERVICE,38.255,-85.7529,6/11/18 0:00,98,A,SAFFRON'S,
68100,1379906,ALL ABOUT KIDS CARTWHEEL CAFE,,2531 BLANKENBAKER PKWY,,LOUISVILLE,KY,40299,FOOD SERVICE,38.2079,-85.5375,5/15/18 0:00,100,A,ALL ABOUT KIDS CARTWHEEL CAFE,
101056,1388714,GOLDEN CORRAL,,4032 TAYLORSVILLE RD,,LOUISVILLE,KY,40220,FOOD SERVICE,38.2193,-85.623,6/18/18 0:00,94,A,GOLDEN CORRAL,
100317,1388715,MOD PIZZA,,3085 BRECKENRIDGE LN,,LOUISVILLE,KY,40220,FOOD SERVICE,38.215,-85.6273,6/18/18 0:00,98,A,MOD PIZZA,
85763,1380100,IHOP,,1401 S HURSTBOURNE PKWY,,LOUISVILLE,KY,40222,FOOD SERVICE,38.2253,-85.578,5/17/18 0:00,97,A,IHOP,
73996,1380121,JIM PATTERSON STADIUM,,3015 S 3RD ST,,LOUISVILLE,KY,40208,FOOD SERVICE,38.205,-85.7634,5/17/18 0:00,99,A,JIM PATTERSON STADIUM,
86322,1383907,VERBENA'S,,10639 MEETING ST,,LOUISVILLE,KY,40059,FOOD SERVICE,38.3229,-85.5655,5/31/18 0:00,97,A,VERBENA'S,
77279,1383921,LITTLE CAESARS,,10025 DIXIE HWY,,LOUISVILLE,KY,40272,FOOD SERVICE,38.1092,-85.8651,5/31/18 0:00,94,A,LITTLE CAESARS,
83416,1386977,SUBWAY #34858,,2020 BASHFORD MANOR LN,,LOUISVILLE,KY,40218,FOOD SERVICE,38.1996,-85.671,6/12/18 0:00,99,A,SUBWAY #34858,
103884,1387005,POTBELLY SANDWICH SHOP,,4023 SUMMIT PLAZA DR,,LOUISVILLE,KY,40241,FOOD SERVICE,38.3064,-85.5769,6/12/18 0:00,97,A,POTBELLY SANDWICH SHOP,
102430,1387007,CUVEE WINE TABLE,,3598 SPRINGHURST BLVD,,LOUISVILLE,KY,40241,FOOD SERVICE,38.299,-85.5612,6/12/18 0:00,100,A,CUVEE WINE TABLE,
101344,1387011,KERN'S KORNER,,2600 BARDSTOWN RD,,LOUISVILLE,KY,40205,FOOD SERVICE,38.2222,-85.6836,6/12/18 0:00,97,A,KERN'S KORNER,
86913,1387025,MOBY DICK,,12416 DIXIE HWY,,LOUISVILLE,KY,40272,FOOD SERVICE,38.758,-85.8844,6/12/18 0:00,98,A,MOBY DICK,
96402,1388744,LITTLE CAESARS,,3121 S 2ND ST,,LOUISVILLE,KY,40208,FOOD SERVICE,38.2027,-85.7633,6/18/18 0:00,99,A,LITTLE CAESARS,
92066,1388753,JIMMY JOHN'S,,5105 DIXIE HWY,,LOUISVILLE,KY,40216,FOOD SERVICE,38.1674,-85.829,6/18/18 0:00,94,A,JIMMY JOHN'S,
34003,1388775,HEALING PLACE,,1020 W MARKET ST,,LOUISVILLE,KY,40202,FOOD SERVICE,38.2561,-85.7675,6/18/18 0:00,99,A,HEALING PLACE,
104755,1380400,GOLDEN WASH,,7305 PRESTON HWY,,LOUISVILLE,KY,40219,FOOD SERVICE,38.1462,-85.6905,5/18/18 0:00,100,A,GOLDEN WASH,
33789,1380436,STEAK N SHAKE #708,,4913 DIXIE HWY,,LOUISVILLE,KY,40216,FOOD SERVICE,38.1692,-85.8271,5/18/18 0:00,95,A,STEAK N SHAKE #708,
82652,1380438,OUTERLIMITS,,721 GAGEL AVE,,LOUISVILLE,KY,40216,FOOD SERVICE,38.1708,-85.7988,5/18/18 0:00,95,A,OUTERLIMITS,
75203,1380464,MILLIONAIRE 4,,700 CENTRAL AVE,,LOUISVILLE,KY,40208,FOOD SERVICE,38.2042,-85.7718,5/18/18 0:00,98,A,MILLIONAIRE 4,
99234,1380476,RALLY'S,,4401 CANE RUN RD,,LOUISVILLE,KY,40216,FOOD SERVICE,38.1989,-85.8375,5/18/18 0:00,93,A,RALLY'S,
103947,1384024,PIZZA HUT,,214 AMY AVE,,LOUISVILLE,KY,40212,FOOD SERVICE,38.2607,-85.8137,5/31/18 0:00,97,A,PIZZA HUT,
101787,1384219,HOMETOWN PIZZA,,12607 TAYLORSVILLE RD,,LOUISVILLE,KY,40299,FOOD SERVICE,38.188,-85.5185,6/1/18 0:00,97,A,HOMETOWN PIZZA,
83222,1384227,WILTSHIRE ON MARKET,,636 E MARKET ST,,LOUISVILLE,KY,40202,FOOD SERVICE,38.2535,-85.7413,5/31/18 0:00,100,A,WILTSHIRE ON MARKET,
75115,1384228,QUEUE CAFE,,220 W MAIN ST,,LOUISVILLE,KY,40202,FOOD SERVICE,38.256,-85.7545,6/1/18 0:00,100,A,QUEUE CAFE,
87151,1387035,CHICK-FIL-A,,7901 BARDSTOWN RD,,LOUISVILLE,KY,40291,FOOD SERVICE,38.129,-85.5764,6/12/18 0:00,100,A,CHICK-FIL-A,
100408,1388820,PEARL,,1151 GOSS AVE,,LOUISVILLE,KY,40217,FOOD SERVICE,38.2265,-85.7342,6/18/18 0:00,99,A,PEARL,
102885,1388821,SOUTHERN HOSPITALITY,,3402 W BROADWAY,,LOUISVILLE,KY,40211,FOOD SERVICE,38.2495,-85.485,6/18/18 0:00,100,A,SOUTHERN HOSPITALITY,
35079,1380530,JOCKEY CLUB SUITES,,700 CENTRAL AVE,,LOUISVILLE,KY,40208,FOOD SERVICE,38.2042,-85.7718,5/18/18 0:00,94,A,JOCKEY CLUB SUITES,
91646,1380582,NEW VIEW BAR AND GRILL,,7601 OUTER LOOP,,LOUISVILLE,KY,40219,FOOD SERVICE,38.1374,-85.6213,5/18/18 0:00,97,A,NEW VIEW BAR AND GRILL,
85861,1384235,EL NOPAL,,1041 ZORN AVE,,LOUISVILLE,KY,40207,FOOD SERVICE,38.2763,-85.6982,6/1/18 0:00,98,A,EL NOPAL,
72637,1384244,PENN STATION,,4000 DIXIE HWY,,LOUISVILLE,KY,40216,FOOD SERVICE,38.1921,-85.8084,6/1/18 0:00,95,A,PENN STATION,
105094,1384257,KINGS DONUTS,,8683 PRESTON HWY,,LOUISVILLE,KY,40219,FOOD SERVICE,38.1268,-85.6796,6/1/18 0:00,91,A,KINGS DONUTS,
94682,1384304,SWEET PEACHES,,1800 W MUHAMMAD ALI BLVD,,LOUISVILLE,KY,40203,FOOD SERVICE,38.2535,-85.7808,6/1/18 0:00,94,A,SWEET PEACHES,
99278,1384305,NOODLES and CO.,,319 W CARDINAL BLVD,,LOUISVILLE,KY,40208,FOOD SERVICE,38.2207,-85.7617,6/1/18 0:00,96,A,NOODLES and CO.,
105110,1387188,80/20 @ KAELINS,,1801 NEWBURG RD,,LOUISVILLE,KY,40205,FOOD SERVICE,38.2228,-85.7104,6/12/18 0:00,93,A,80/20 @ KAELINS,
102177,1380959,A CHAU RESTAURANT,,5103 S 3RD ST,,LOUISVILLE,KY,40214,FOOD SERVICE,38.1727,-85.7673,5/21/18 0:00,95,A,A CHAU RESTAURANT,
34933,1380975,MOBY DICK,,3802 DIXIE HWY,,LOUISVILLE,KY,40216,FOOD SERVICE,38.1969,-85.8054,5/21/18 0:00,97,A,MOBY DICK,
34393,1380986,TWO LANE LIQUOR and BAR,,9702 BARDSTOWN RD,,LOUISVILLE,KY,40291,FOOD SERVICE,38.993,-85.5622,5/18/18 0:00,95,A,TWO LANE LIQUOR and BAR,
96322,1380988,HOMETOWN PIZZA,,9601 NEWBRIDGE RD,,LOUISVILLE,KY,40291,FOOD SERVICE,38.1574,-85.59,5/21/18 0:00,97,A,HOMETOWN PIZZA,
103959,1380989,4 SEASONS RESTAURANT,,8402 HUDSON LN,,LOUISVILLE,KY,40291,FOOD SERVICE,38.1654,-85.5985,5/21/18 0:00,100,A,4 SEASONS RESTAURANT,
101124,1384605,SAM'S GYROS,,3123 S 2ND ST,,LOUISVILLE,KY,40208,FOOD SERVICE,38.2039,-85.7633,6/4/18 0:00,96,A,SAM'S GYROS,
33276,1384607,FAZOLI'S,,6011 PRESTON HWY,,LOUISVILLE,KY,40213,FOOD SERVICE,38.1642,-85.7009,6/4/18 0:00,99,A,FAZOLI'S,
62104,1384615,OKOLONA BASEBALL BABE RUTH,,8620 PRESTON HWY,,LOUISVILLE,KY,40219,FOOD SERVICE,38.1261,-85.6816,6/4/18 0:00,100,A,OKOLONA BASEBALL BABE RUTH,
104253,1384670,VILLE CHICKEN and SEAFOOD,,4322 POPLAR LEVEL RD,,LOUISVILLE,KY,40213,FOOD SERVICE,38.1934,-85.7073,6/4/18 0:00,97,A,VILLE CHICKEN and SEAFOOD,
34923,1384700,OLLIE'S TROLLEY #9,,978 S 3RD ST,,LOUISVILLE,KY,40203,FOOD SERVICE,38.239,-85.7581,6/4/18 0:00,99,A,OLLIE'S TROLLEY #9,
104842,1379839,CON HUEVOS,,4938 US HWY 42,,LOUISVILLE,KY,40222,FOOD SERVICE,38.2834,-85.6325,5/16/18 0:00,100,A,CON HUEVOS,
104905,1379882,CARDINAL NUTRITION,,2631 S 3RD ST,,LOUISVILLE,KY,40208,FOOD SERVICE,38.21,-85.7627,5/16/18 0:00,100,A,CARDINAL NUTRITION,
96506,1379883,COCONUT BEACH TACOS and CERVEZA,,2787 S FLOYD ST,,LOUISVILLE,KY,40209,FOOD SERVICE,38.2063,-85.7559,5/16/18 0:00,98,A,COCONUT BEACH TACOS and CERVEZA,
101217,1379886,SANDI'S KITCHEN,,5300 CANE RUN RD,,LOUISVILLE,KY,40258,FOOD SERVICE,38.1762,-85.882,5/16/18 0:00,96,A,SANDI'S KITCHEN,
99353,1388137,VIS A VIS BAR and GRILL,,1164 S 3RD ST,,LOUISVILLE,KY,40203,FOOD SERVICE,38.2351,-85.7592,6/14/18 0:00,93,A,VIS A VIS BAR and GRILL,
85497,1389878,FEED THE CITY,,1100 S 26TH ST,,LOUISVILLE,KY,40210,FOOD SERVICE,38.2405,-85.7959,6/19/18 0:00,98,A,FEED THE CITY,
105197,1389879,EL NOPAL,,4414 DIXIE HWY,,LOUISVILLE,KY,40216,FOOD SERVICE,38.1828,-85.8155,6/19/18 0:00,97,A,EL NOPAL,
57205,1390577,RODEO,,5204 ELZIE RD,,LOUISVILLE,KY,40258,FOOD SERVICE,38.1251,-85.856,6/21/18 0:00,90,A,RODEO,
33374,1390616,AMVETS POST 1,,1111 SWAN ST,,LOUISVILLE,KY,40204,FOOD SERVICE,38.2345,-85.7369,6/21/18 0:00,97,A,AMVETS POST 1,
87491,1390976,RED DOOR LOUNGE,,15101 DIXIE HWY,,LOUISVILLE,KY,40272,FOOD SERVICE,38.349,-85.9113,6/22/18 0:00,94,A,RED DOOR LOUNGE,
64935,1391273,SWIFT COMPANY CAFETERIA,,1200 STORY AVE,,LOUISVILLE,KY,40206,FOOD SERVICE,38.2551,-85.728,6/22/18 0:00,95,A,SWIFT COMPANY CAFETERIA,
49678,1391297,TK'S PUB and GRILL,,5442 DEL MARIA WAY,,LOUISVILLE,KY,40291,FOOD SERVICE,38.1692,-85.6084,6/25/18 0:00,96,A,TK'S PUB and GRILL,
100710,1391286,JET'S PIZZA #15,,10494 WESTPORT RD,,LOUISVILLE,KY,40241,FOOD SERVICE,38.2934,-85.5581,6/25/18 0:00,97,A,JET'S PIZZA #15,
90962,1391339,DENNY'S,,434 EASTERN PKWY,,LOUISVILLE,KY,40217,FOOD SERVICE,38.2115,-85.7519,6/25/18 0:00,94,A,DENNY'S,
95877,1391341,CLOVERLEAF BAPTIST CHURCH,,4401 MANSLICK RD,,LOUISVILLE,KY,40216,FOOD SERVICE,38.1841,-85.8004,6/25/18 0:00,97,A,CLOVERLEAF BAPTIST CHURCH,
35028,1391357,CAPTAIN D'S #3517,,3801 OAKLAWN DR,,LOUISVILLE,KY,40219,FOOD SERVICE,38.1492,-85.692,6/22/18 0:00,94,A,CAPTAIN D'S #3517,
94203,1391361,ALOHA COFFEEHOUSE,,5219 MT WASHINGTON RD,,LOUISVILLE,KY,40219,FOOD SERVICE,38.928,-85.6659,6/25/18 0:00,100,A,ALOHA COFFEEHOUSE,
95492,1381720,SOUTH PARK SHARKS,,915 S PARK RD,,FAIRDALE,KY,40118,FOOD SERVICE,38.1068,-85.7245,5/23/18 0:00,96,A,SOUTH PARK SHARKS,
66690,1383812,STARBUCKS #2561,,4400 SHELBYVILLE RD,,LOUISVILLE,KY,40207,FOOD SERVICE,38.2508,-85.6344,5/31/18 0:00,100,A,STARBUCKS #2561,
34667,1384015,HURSTBOURNE COUNTRY CLUB,,9000 HURSTBOURNE CLUB LN,,LOUISVILLE,KY,40222,FOOD SERVICE,38.2396,-85.5903,5/31/18 0:00,96,A,HURSTBOURNE COUNTRY CLUB,
72220,1387033,MCALISTER'S #1149,,6510 BARDSTOWN RD,,LOUISVILLE,KY,40291,FOOD SERVICE,38.1522,-85.5889,6/12/18 0:00,95,A,MCALISTER'S #1149,
90868,1387034,SALA THAI RESTAURANT,,8125 BARDSTOWN RD,,LOUISVILLE,KY,40291,FOOD SERVICE,38.1768,-85.6191,6/12/18 0:00,98,A,SALA THAI RESTAURANT,
103940,1387086,ROOF TOP GRILL,,414 W OAK ST,,LOUISVILLE,KY,40203,FOOD SERVICE,38.2349,-85.7611,6/12/18 0:00,92,A,ROOF TOP GRILL,
89580,1388203,SUBWAY,,12907 FACTORY LN,,LOUISVILLE,KY,40245,FOOD SERVICE,38.2886,-85.5119,6/15/18 0:00,100,A,SUBWAY,
90506,1388262,PBR LOUISVILLE,,432 S 4TH ST,,LOUISVILLE,KY,40202,FOOD SERVICE,38.2519,-86.7573,6/13/18 0:00,98,A,PBR LOUISVILLE,
34305,1388266,HUNGRY PELICAN,,5412 BARDSTOWN RD,,LOUISVILLE,KY,40291,FOOD SERVICE,38.1663,-85.602,6/15/18 0:00,94,A,HUNGRY PELICAN,
51213,1388267,AMERICAN LEGION G.I. JOE POST 244,,3408 COLLEGE DR,,LOUISVILLE,KY,40299,FOOD SERVICE,38.1942,-85.5691,6/15/18 0:00,98,A,AMERICAN LEGION G.I. JOE POST 244,
84361,1391274,SERGIO'S,,1605 STORY AVE,,LOUISVILLE,KY,40206,FOOD SERVICE,38.2593,-85.7209,6/22/18 0:00,96,A,SERGIO'S,
74259,1391871,TARGET T-0780 STARBUCKS,,4640 TAYLORSVILLE RD,,LOUISVILLE,KY,40220,FOOD SERVICE,38.2152,-85.5952,6/25/18 0:00,100,A,TARGET T-0780 STARBUCKS,
33244,1391875,ELKS LOUISVILLE LODGE #8,,2824 KLONDIKE LN,,LOUISVILLE,KY,40218,FOOD SERVICE,38.2009,-85.6406,6/26/18 0:00,100,A,ELKS LOUISVILLE LODGE #8,
68548,1384218,MID AMERICAN SPORTS CENTER,,1906 WATTERSON TRAIL,,LOUISVILLE,KY,40299,FOOD SERVICE,38.2177,-85.5597,6/1/18 0:00,98,A,MID AMERICAN SPORTS CENTER,
34882,1384222,CEDAR RIDGE CAMP and RETREAT CNT,,4010 ROUTT RD,,LOUISVILLE,KY,40299,FOOD SERVICE,38.1761,-85.4791,6/1/18 0:00,100,A,CEDAR RIDGE CAMP and RETREAT CNT,
99663,1386109,RECBAR,,10301 TAYLORSVILLE RD,,LOUISVILLE,KY,40299,FOOD SERVICE,38.1957,-85.5659,6/8/18 0:00,97,A,RECBAR,
62681,1386127,BROWN LOBBY BAR,,335 W BROADWAY,,LOUISVILLE,KY,40203,FOOD SERVICE,38.2465,-85.758,6/7/18 0:00,100,A,BROWN LOBBY BAR,
33920,1386128,BROWN J. GRAHAM CAFE,,335 W BROADWAY,,LOUISVILLE,KY,40202,FOOD SERVICE,38.2465,-85.758,6/7/18 0:00,95,A,BROWN J. GRAHAM CAFE,
96112,1386139,WAYSIDE CHRISTIAN MISSION,,432 E JEFFERSON ST,,LOUISVILLE,KY,40202,FOOD SERVICE,38.2521,-85.7448,6/8/18 0:00,90,A,WAYSIDE CHRISTIAN MISSION,
96757,1386185,POST,,1045 GOSS AVE,,LOUISVILLE,KY,40217,FOOD SERVICE,38.2276,-85.7354,6/8/18 0:00,95,A,POST,
78144,1388276,STARBUCKS #11181,,3103 S 3RD ST,,LOUISVILLE,KY,40214,FOOD SERVICE,38.2043,-85.7636,6/14/18 0:00,98,A,STARBUCKS #11181,
95209,1388297,COMFY COW,,1449 BARDSTOWN RD,,LOUISVILLE,KY,40204,FOOD SERVICE,38.2324,-85.4237,6/15/18 0:00,98,A,COMFY COW,
101312,1388316,MR. LEE'S,,935 GOSS AVE,,LOUISVILLE,KY,40217,FOOD SERVICE,38.138,-85.443,6/14/18 0:00,96,A,MR. LEE'S,
91011,1388320,CHESTNUT HOUSE,,1700 W CHESTNUT ST,,LOUISVILLE,KY,40203,FOOD SERVICE,38.2511,-81.7796,6/15/18 0:00,98,A,CHESTNUT HOUSE,
101654,1388328,SEAFOOD LADY,,107 W OAK ST,,LOUISVILLE,KY,40203,FOOD SERVICE,38.2346,-85.7558,6/15/18 0:00,94,A,SEAFOOD LADY,
42347,1388329,WIN PLACE and SHOW BAR,,3425 TAYLOR BLVD,,LOUISVILLE,KY,40215,FOOD SERVICE,38.1988,-85.7821,6/15/18 0:00,98,A,WIN PLACE and SHOW BAR,
102661,1390922,GREEN DISTRICT,,126 BRECKENRIDGE LN,,LOUISVILLE,KY,40207,FOOD SERVICE,38.2522,-85.6554,6/22/18 0:00,98,A,GREEN DISTRICT,
33116,1390933,DOMINO'S PIZZA #1425,,9409 WESTPORT RD,,LOUISVILLE,KY,40222,FOOD SERVICE,38.2868,-85.5766,6/22/18 0:00,94,A,DOMINO'S PIZZA #1425,
103886,1390934,KFC,,4910 US HWY 42,,LOUISVILLE,KY,40222,FOOD SERVICE,38.2818,-85.6336,6/22/18 0:00,97,A,KFC,
95301,1390945,FDKY BBQ,,9606 TAYLORSVILLE RD,,LOUISVILLE,KY,40299,FOOD SERVICE,38.2047,-85.5787,6/22/18 0:00,99,A,FDKY BBQ,
105413,1391275,WATERFRONT WINE and SPIRITS,,222 E WITHERSPOON,,LOUISVILLE,KY,40202,FOOD SERVICE,38.2571,-85.7486,6/25/18 0:00,98,A,WATERFRONT WINE and SPIRITS,
97969,1391300,SUBWAY,,8129 BARDSTOWN RD,,LOUISVILLE,KY,40291,FOOD SERVICE,38.1294,-85.5152,6/25/18 0:00,98,A,SUBWAY,
86022,1382004,NORTON CHILDREN'S MEDICAL CENTER,,4910 CHAMBERLAIN LN,,LOUISVILLE,KY,40241,FOOD SERVICE,38.3152,-85.5685,5/24/18 0:00,100,A,NORTON CHILDREN'S MEDICAL CENTER,
98095,1382029,EXECUTIVE BISTRO,,1930 BISHOP LN,,LOUISVILLE,KY,40218,FOOD SERVICE,38.2017,-85.6834,5/24/18 0:00,93,A,EXECUTIVE BISTRO,
101126,1382128,SUE'S TOUCH OF COUNTRY,,2605 ROCKFORD LN,,LOUISVILLE,KY,40216,FOOD SERVICE,38.1776,-85.846,5/24/18 0:00,100,A,SUE'S TOUCH OF COUNTRY,
95293,1384240,KY KINGDOM CASA MIA,,937 PHILLIPS LN,,LOUISVILLE,KY,40209,FOOD SERVICE,38.2003,-85.7407,6/1/18 0:00,100,A,KY KINGDOM CASA MIA,
95153,1384311,KY KINGDOM SWAMPWATER JACK'S,,937 PHILLIPS LN,,LOUISVILLE,KY,40209,FOOD SERVICE,38.2003,-85.7407,6/1/18 0:00,97,A,KY KINGDOM SWAMPWATER JACK'S,
95317,1384312,KY KINGDOM HURRICANE HATTIES,,937 PHILLIPS LN,,LOUISVILLE,KY,40209,FOOD SERVICE,38.2003,-85.545,6/1/18 0:00,100,A,KY KINGDOM HURRICANE HATTIES,
95295,1384317,KY KINGDOM CLOCK TOWER,,937 PHILLIPS LN,,LOUISVILLE,KY,40209,FOOD SERVICE,38.2003,-85.7407,6/1/18 0:00,100,A,KY KINGDOM CLOCK TOWER,
95319,1384355,KY KINGDOM FOOD COURT,,937 PHILLIPS LN,,LOUISVILLE,KY,40209,FOOD SERVICE,38.2003,-85.7407,6/1/18 0:00,100,A,KY KINGDOM FOOD COURT,
33761,1386220,WRIGHT PLACE,,501 N 33RD ST,,LOUISVILLE,KY,40212,FOOD SERVICE,38.2731,-85.8006,6/8/18 0:00,100,A,WRIGHT PLACE,
88055,1391905,DAIRY QUEEN,,9515 US HWY 42,,PROSPECT,KY,40059,FOOD SERVICE,38.343,-85.6172,6/26/18 0:00,98,A,DAIRY QUEEN,
101055,1391915,GOLDEN CORRAL,,5362 DIXIE HWY,,LOUISVILLE,KY,40216,FOOD SERVICE,38.1573,-85.8349,6/26/18 0:00,95,A,GOLDEN CORRAL,
62575,1382296,WHITE CASTLE #30,,2711 FERN VALLEY RD,,LOUISVILLE,KY,40213,FOOD SERVICE,38.1578,-85.7148,5/25/18 0:00,98,A,WHITE CASTLE #30,
59007,1382330,IROQUOIS PIZZA INC.,,6614 MANSLICK RD,,LOUISVILLE,KY,40214,FOOD SERVICE,38.1652,-85.798,5/25/18 0:00,97,A,IROQUOIS PIZZA INC.,
90118,1382334,QDOBA #2713,,1832 S 3RD ST,,LOUISVILLE,KY,40208,FOOD SERVICE,38.2208,-85.7614,5/24/18 0:00,98,A,QDOBA #2713,
98420,1384611,JIMMY JOHN'S,,4828 NORTON HEALTHCARE BLVD,,LOUISVILLE,KY,40241,FOOD SERVICE,38.3132,-85.5724,6/4/18 0:00,98,A,JIMMY JOHN'S,
82618,1384652,AFC SUSHI @ KROGER #780,,10645 DIXIE HWY,,LOUISVILLE,KY,40272,FOOD SERVICE,38.1002,-85.8712,6/4/18 0:00,96,A,AFC SUSHI @ KROGER #780,
105091,1384654,LOUIE'S HOT CHICKEN and BARBEQUE,,4222 POPLAR LEVEL RD,,LOUISVILLE,KY,40213,FOOD SERVICE,38.1982,-85.7081,6/4/18 0:00,94,A,LOUIE'S HOT CHICKEN and BARBEQUE,
56899,1387388,WENDY'S #310,,193 OUTER LOOP,,LOUISVILLE,KY,40214,FOOD SERVICE,38.1267,-85.7747,6/13/18 0:00,99,A,WENDY'S #310,
32535,1387396,DES PRES PARK CONCESSION,,4709 LOWE RD,,LOUISVILLE,KY,40222,FOOD SERVICE,38.2233,-85.6038,6/13/18 0:00,96,A,DES PRES PARK CONCESSION,
89675,1387411,DRAKE'S BHG LOUISVILLE #2,,3921 SUMMIT PLAZA DR,,LOUISVILLE,KY,40241,FOOD SERVICE,38.3076,-85.5763,6/13/18 0:00,93,A,DRAKE'S BHG LOUISVILLE #2,
96779,1387412,TOKYO JAPANESE RESTAURANT and SUSHI BAR,,2415 LIME KILN LN,,LOUISVILLE,KY,40222,FOOD SERVICE,38.2858,-85.628,6/13/18 0:00,98,A,TOKYO JAPANESE RESTAURANT and SUSHI BAR,
63778,1387423,PAPA JOHN'S #2000,,2002 PAPA JOHNS BLVD,,LOUISVILLE,KY,40299,FOOD SERVICE,38.2128,-85.5319,6/13/18 0:00,99,A,PAPA JOHN'S #2000,
90888,1387428,STARBUCKS  #16953,,1831 BLANKENBAKER PKWY,,LOUISVILLE,KY,40299,FOOD SERVICE,38.2278,-85.541,6/13/18 0:00,99,A,STARBUCKS  #16953,
97575,1391876,DOUBLE DRAGON KITCHEN,,4622 HENDRIK DR,,LOUISVILLE,KY,40299,FOOD SERVICE,38.1848,-85.608,6/26/18 0:00,98,A,DOUBLE DRAGON KITCHEN,
98920,1391895,MARK'S SLAB HOUSE,,4912 PRESTON HWY,,LOUISVILLE,KY,40213,FOOD SERVICE,38.1762,-85.7149,6/26/18 0:00,99,A,MARK'S SLAB HOUSE,
97879,1391950,SUBWAY,,425 UNIVERSITY BLVD,,LOUISVILLE,KY,40217,FOOD SERVICE,38.2144,-85.7509,6/26/18 0:00,100,A,SUBWAY,
63523,1391951,PIZZA HUT #013430,,3601 BUECHEL BYPASS,,LOUISVILLE,KY,40218,FOOD SERVICE,38.1997,-85.6616,6/26/18 0:00,95,A,PIZZA HUT #013430,
83509,1392503,JIMMY JOHN'S,,301 E MARKET ST,,LOUISVILLE,KY,40202,FOOD SERVICE,38.2543,-85.7481,6/27/18 0:00,97,A,JIMMY JOHN'S,
96555,1392504,FEAST BBQ,,909 E MARKET ST,,LOUISVILLE,KY,40206,FOOD SERVICE,38.253,-85.7358,6/26/18 0:00,96,A,FEAST BBQ,
99097,1392505,AKASHA BREWING COMPANY,,909 E MARKET ST,,LOUISVILLE,KY,40206,FOOD SERVICE,38.2533,-85.7356,6/26/18 0:00,100,A,AKASHA BREWING COMPANY,
54253,1391872,BARNES and NOBLE BOOKSELLERS,,801 S HURSTBOURNE PKWY,,LOUISVILLE,KY,40222,FOOD SERVICE,38.236,-85.5757,6/26/18 0:00,100,A,BARNES and NOBLE BOOKSELLERS,
97214,1384699,EMBASSY SUITES,,501 S 4TH ST,,LOUISVILLE,KY,40202,FOOD SERVICE,38.2511,-85.7575,6/4/18 0:00,98,A,EMBASSY SUITES,
101355,1386582,OLD CHICAGO,,9010 TAYLORSVILLE RD,,LOUISVILLE,KY,40299,FOOD SERVICE,0,0,6/11/18 0:00,98,A,OLD CHICAGO,
65319,1387549,DAYS INN,,1620 ARTHUR ST,,LOUISVILLE,KY,40208,FOOD SERVICE,38.2231,-85.7519,6/14/18 0:00,95,A,DAYS INN,
94825,1388745,SUBWAY #382,,5338 S 3RD ST,,LOUISVILLE,KY,40214,FOOD SERVICE,38.1712,-85.7681,6/18/18 0:00,97,A,SUBWAY #382,
96401,1388746,DOUBLE DRAGON II,,3133 S 2ND ST,,LOUISVILLE,KY,40208,FOOD SERVICE,38.2036,-85.7632,6/18/18 0:00,98,A,DOUBLE DRAGON II,
89373,1391873,CHICK-FIL-A,,2350 SHANE DR,,LOUISVILLE,KY,40220,FOOD SERVICE,38.2135,-85.5943,6/26/18 0:00,95,A,CHICK-FIL-A,
93039,1391888,ASIAN POT,,2801 PACKERLAND WAY,,LOUISVILLE,KY,40213,FOOD SERVICE,38.1562,-85.713,6/26/18 0:00,94,A,ASIAN POT,
94669,1391894,MIRAGE MEDITERRANEAN CUISINE,,4100 PRESTON HWY,,LOUISVILLE,KY,40213,FOOD SERVICE,38.1926,-85.7286,6/26/18 0:00,97,A,MIRAGE MEDITERRANEAN CUISINE,
34038,1392170,SAINTS PIZZA and PUB,,131 BRECKENRIDGE LN,,LOUISVILLE,KY,40207,FOOD SERVICE,38.2521,-85.6544,6/27/18 0:00,98,A,SAINTS PIZZA and PUB,
88449,1392291,O'CONNELL'S IRISH PUB,,5520 FERN VALLEY RD,,LOUISVILLE,KY,40228,FOOD SERVICE,38.1561,-85.6596,6/27/18 0:00,95,A,O'CONNELL'S IRISH PUB,
42087,1382786,SHONEY'S #1772,,6511 SIGNATURE DR,,LOUISVILLE,KY,40219,FOOD SERVICE,38.1562,-85.7143,5/29/18 0:00,93,A,SHONEY'S #1772,
90552,1382792,LONGHORN STEAKHOUSE,,4813 OUTER LOOP,,LOUISVILLE,KY,40219,FOOD SERVICE,38.1379,-85.6696,5/29/18 0:00,97,A,LONGHORN STEAKHOUSE,
52869,1382816,JOE MUGGS,,994 BRECKENRIDGE LN,,LOUISVILLE,KY,40207,FOOD SERVICE,38.2312,-85.6423,5/25/18 0:00,100,A,JOE MUGGS,
104034,1382817,SUNERGOS COFFEE,,1647 NORRIS PLACE,,LOUISVILLE,KY,40205,FOOD SERVICE,38.225,-85.7064,5/25/18 0:00,100,A,SUNERGOS COFFEE,
97267,1382835,PASHA'S MEDITERRANEAN GRILL and CAFE,,3904 BARDSTOWN RD,,LOUISVILLE,KY,40218,FOOD SERVICE,38.195,-85.6531,5/29/18 0:00,97,A,PASHA'S MEDITERRANEAN GRILL and CAFE,
68713,1382837,PENN STATION,,6525 BARDSTOWN RD,,LOUISVILLE,KY,40291,FOOD SERVICE,38.1513,-85.5874,5/29/18 0:00,100,A,PENN STATION,
86906,1382838,EDIBLE ARRANGEMENTS #1197,,6515 BARDSTOWN RD,,LOUISVILLE,KY,40291,FOOD SERVICE,38.1524,-85.5884,5/29/18 0:00,100,A,EDIBLE ARRANGEMENTS #1197,
99017,1382930,SCARLET'S BAKERY,,741 E OAK ST,,LOUISVILLE,KY,40203,FOOD SERVICE,38.2336,-85.7416,5/29/18 0:00,100,A,SCARLET'S BAKERY,
96541,1385041,LITTLE CAESARS,,5751 PRESTON HWY,,LOUISVILLE,KY,40219,FOOD SERVICE,38.1662,-85.7023,6/5/18 0:00,98,A,LITTLE CAESARS,
92092,1385079,JET'S PIZZA,,3624 S HURSTBOURNE PKWY,,LOUISVILLE,KY,40299,FOOD SERVICE,38.1972,-85.6032,6/5/18 0:00,100,A,JET'S PIZZA,
89095,1385140,BISTRO 634,,634 S FLOYD ST,,LOUISVILLE,KY,40202,FOOD SERVICE,38.2467,-85.7494,6/4/18 0:00,100,A,BISTRO 634,
85311,1386614,SUBWAY #28497,,4835 POPLAR LEVEL RD,,LOUISVILLE,KY,40213,FOOD SERVICE,38.1734,-85.6862,6/11/18 0:00,100,A,SUBWAY #28497,
34307,1386645,FERN BOWL SNACK BAR/LOUNGE,,5518 BARDSTOWN RD,,LOUISVILLE,KY,40291,FOOD SERVICE,38.165,0,6/11/18 0:00,94,A,FERN BOWL SNACK BAR/LOUNGE,
54797,1386648,ST. PAUL'S UNITED METHODIST CHURCH,,2000 DOUGLASS BLVD,,LOUISVILLE,KY,40205,FOOD SERVICE,38.2246,-85.6928,6/11/18 0:00,100,A,ST. PAUL'S UNITED METHODIST CHURCH,
34592,1386651,DIZZY WHIZ #1,,217 W ST. CATHERINE ST,,LOUISVILLE,KY,40203,FOOD SERVICE,38.2373,-85.7579,6/11/18 0:00,95,A,DIZZY WHIZ #1,
90608,1386670,EL NOPAL,,811 EASTERN PKWY,,LOUISVILLE,KY,40217,FOOD SERVICE,38.2153,-85.742,6/11/18 0:00,96,A,EL NOPAL,
105373,1390546,DRAGON BREATH,,5000 SHELBYVILLE RD,,LOUISVILLE,KY,40207,FOOD SERVICE,38.2467,-85.6233,6/21/18 0:00,98,A,DRAGON BREATH,
92342,1390033,MILKWOOD,,316 W MAIN ST,,LOUISVILLE,KY,40202,FOOD SERVICE,38.2563,-85.7556,6/20/18 0:00,98,A,MILKWOOD,
69245,1383050,STEVE'S BAR and GRILL,,1670 S 17TH ST,,LOUISVILLE,KY,40210,FOOD SERVICE,38.2265,-85.7851,5/29/18 0:00,100,A,STEVE'S BAR and GRILL,
32659,1386683,BIG SPRING MAIN KITCHEN,,5901 DUTCHMANS LN,,LOUISVILLE,KY,40205,FOOD SERVICE,38.2322,-85.6482,6/7/18 0:00,91,A,BIG SPRING MAIN KITCHEN,
33518,1386684,BIG SPRING  CONCESSION,,5901 DUTCHMANS LN,,LOUISVILLE,KY,40205,FOOD SERVICE,38.2322,-85.6482,6/7/18 0:00,99,A,BIG SPRING  CONCESSION,
81979,1386686,SENOR IGUANAS,,3105 S 2ND ST,,LOUISVILLE,KY,40208,FOOD SERVICE,38.2044,-85.7632,6/5/18 0:00,94,A,SENOR IGUANAS,
105268,1386708,LOUISVILLE DOWNTOWNER DELI,,428 W MARKET ST,,LOUISVILLE,KY,40202,FOOD SERVICE,38.2551,-85.258,6/11/18 0:00,98,A,LOUISVILLE DOWNTOWNER DELI,
75568,1386710,PROOF ON MAIN BAR,,700 W MAIN ST,,LOUISVILLE,KY,40202,FOOD SERVICE,38.257,-85.7617,6/11/18 0:00,98,A,PROOF ON MAIN BAR,
33092,1388846,RETIRED SERVICEMEN'S CLUB,,1700 W HILL ST,,LOUISVILLE,KY,40210,FOOD SERVICE,38.2278,-85.7849,6/18/18 0:00,92,A,RETIRED SERVICEMEN'S CLUB,
81207,1392171,HOME CUISINE,,309 WALLACE AVE,,LOUISVILLE,KY,40207,FOOD SERVICE,38.2527,-85.6577,6/27/18 0:00,92,A,HOME CUISINE,
98930,1392175,AFC SUSHI @ KROGER #224,,2200 BROWNSBORO RD,,LOUISVILLE,KY,40206,FOOD SERVICE,38.2582,-85.7043,6/25/18 0:00,100,A,AFC SUSHI @ KROGER #224,
86716,1390647,BUNGALOW JOES BAR and GRILL,,7813 BEULAH CHURCH RD,,LOUISVILLE,KY,40228,FOOD SERVICE,38.1327,-85.6139,6/21/18 0:00,96,A,BUNGALOW JOES BAR and GRILL,
34602,1389993,SENECA GOLF COURSE SNACK BAR,,2300 PEE WEE REESE RD,,LOUISVILLE,KY,40205,FOOD SERVICE,38.23,-85.6733,6/20/18 0:00,100,A,SENECA GOLF COURSE SNACK BAR,
80288,1383285,SONIC DRIVE-IN,,7010 RAGGARD RD,,LOUISVILLE,KY,40216,FOOD SERVICE,38.1735,-85.8721,5/30/18 0:00,97,A,SONIC DRIVE-IN,
98387,1387961,BRYANT'S CAKE and CANDY SUPPLIES,,3841 RUCKRIEGEL PKWY,,LOUISVILLE,KY,40299,FOOD SERVICE,38.1886,-85.5669,6/14/18 0:00,100,A,BRYANT'S CAKE and CANDY SUPPLIES,
65089,1392298,POPEYE'S,,5003 PRESTON HWY,,LOUISVILLE,KY,40213,FOOD SERVICE,38.1755,-85.7131,6/27/18 0:00,93,A,POPEYE'S,
98534,1392300,ASIAN HOUSE,,9707 DIXIE HWY,,LOUISVILLE,KY,40272,FOOD SERVICE,38.1148,-85.8604,6/27/18 0:00,100,A,ASIAN HOUSE,
34896,1392383,ARBY'S #263,,3615 BARDSTOWN RD,,LOUISVILLE,KY,40218,FOOD SERVICE,38.1997,-85.6607,6/27/18 0:00,96,A,ARBY'S #263,
76383,1392384,STARBUCKS,,3401 BARDSTOWN RD,,LOUISVILLE,KY,40218,FOOD SERVICE,38.2057,-85.6662,6/27/18 0:00,97,A,STARBUCKS,
77591,1390545,JIMMY JOHN'S,,4000 SHELBYVILLE RD,,LOUISVILLE,KY,40207,FOOD SERVICE,38.2525,-85.6529,6/21/18 0:00,100,A,JIMMY JOHN'S,
103902,1390558,AFC SUSHI @ KROGER #752,,3165 S 2ND ST,,LOUISVILLE,KY,40208,FOOD SERVICE,38.2026,-85.7614,6/21/18 0:00,98,A,AFC SUSHI @ KROGER #752,
35086,1385818,HIGHVIEW YOUTH SPORTS,,6415 OUTER LOOP,,LOUISVILLE,KY,40219,FOOD SERVICE,38.1397,0,6/7/18 0:00,100,A,HIGHVIEW YOUTH SPORTS,
75793,1386974,CHILI'S,,3623 BARDSTOWN RD,,LOUISVILLE,KY,40218,FOOD SERVICE,38.1995,-85.66,6/12/18 0:00,98,A,CHILI'S,
93155,1387980,PRESTON CROSSINGS BAR and GRILL,,9700 PRESTON CROSSINGS BLVD,,LOUISVILLE,KY,40229,FOOD SERVICE,38.1083,-85.6716,6/14/18 0:00,99,A,PRESTON CROSSINGS BAR and GRILL,
93156,1387981,PRESTON CROSSINGS CINEMA CORE CONCESSION,,9700 PRESTON CROSSINGS BLVD,,LOUISVILLE,KY,40229,FOOD SERVICE,38.1083,-85.6716,6/14/18 0:00,99,A,PRESTON CROSSINGS CINEMA CORE CONCESSION,
34779,1388003,LAKESIDE CLUB,,2010 TREVILIAN WAY,,LOUISVILLE,KY,40205,FOOD SERVICE,38.2203,-85.6869,6/14/18 0:00,100,A,LAKESIDE CLUB,
35063,1388004,CHEROKEE GOLF COURSE,,2501 ALEXANDER RD,,LOUISVILLE,KY,40204,FOOD SERVICE,38.2382,-85.7052,6/14/18 0:00,99,A,CHEROKEE GOLF COURSE,
34471,1388005,AERO CLUB,,3333 ROGER E SCHUPP ST,,LOUISVILLE,KY,40205,FOOD SERVICE,38.2235,-85.6679,6/14/18 0:00,99,A,AERO CLUB,
104739,1388035,PLANET BAR,,2232 BARDSTOWN RD,,LOUISVILLE,KY,40205,FOOD SERVICE,38.224,-85.6927,6/14/18 0:00,100,A,PLANET BAR,
103903,1389178,BRICKHOUSE TAVERN and TAP,,871 S HURSTBOURNE PKWY,,LOUISVILLE,KY,40222,FOOD SERVICE,38.2344,-85.5758,6/19/18 0:00,98,A,BRICKHOUSE TAVERN and TAP,
94418,1378441,HOLLY'S POUR HOUSE,,907 ULRICH AVE,,LOUISVILLE,KY,40219,FOOD SERVICE,38.1572,-85.708,5/10/18 0:00,95,A,HOLLY'S POUR HOUSE,
86968,1380023,IMPELLIZZERI'S,,110 W MAIN ST,,LOUISVILLE,KY,40202,FOOD SERVICE,38.2561,-85.7518,5/16/18 0:00,96,A,IMPELLIZZERI'S,
98110,1380025,GALAXIE,,732 E MARKET ST,,LOUISVILLE,KY,40202,FOOD SERVICE,38.2529,-85.7387,5/16/18 0:00,98,A,GALAXIE,
96113,1380101,PANERA BREAD,,500 S HURSTBOURNE PKWY,,LOUISVILLE,KY,40222,FOOD SERVICE,38.2392,-85.5777,5/17/18 0:00,97,A,PANERA BREAD,
98056,1380102,MCDONALD'S,,1100 S HURSTBOURNE PKWY,,LOUISVILLE,KY,40222,FOOD SERVICE,0,0,5/17/18 0:00,100,A,MCDONALD'S,
103807,1380108,MAF GALLERY and CAFE,,976 BARRET AVE,,LOUISVILLE,KY,40204,FOOD SERVICE,38.237,-85.7292,5/15/18 0:00,98,A,MAF GALLERY and CAFE,
75119,1380117,SUBWAY #34164,,2840 PACKERLAND WAY,,LOUISVILLE,KY,40213,FOOD SERVICE,38.1556,-85.7128,5/17/18 0:00,99,A,SUBWAY #34164,
32358,1380133,ARBY'S #5430,,10704 DIXIE HWY,,LOUISVILLE,KY,40272,FOOD SERVICE,38.983,-85.8729,5/17/18 0:00,100,A,ARBY'S #5430,
105013,1380154,IRMA DEE'S BY MEKA,,1213 S 28TH ST,,LOUISVILLE,KY,40211,FOOD SERVICE,38.2375,-85.8001,5/17/18 0:00,93,A,IRMA DEE'S BY MEKA,
88197,1380155,ANNIE'S PIZZA,,4771 CANE RUN RD,,LOUISVILLE,KY,40216,FOOD SERVICE,38.1847,-85.8547,5/17/18 0:00,97,A,ANNIE'S PIZZA,
87546,1389266,PIZZA HUT,,9219 US HWY 42,,PROSPECT,KY,40059,FOOD SERVICE,38.3405,-85.6188,6/19/18 0:00,93,A,PIZZA HUT,
96849,1378472,SUBWAY,,533 N 22ND ST,,LOUISVILLE,KY,40212,FOOD SERVICE,38.2677,-85.7826,5/10/18 0:00,98,A,SUBWAY,
71714,1378520,HEINE BROTHERS COFFEE,,516 W MAIN ST,,LOUISVILLE,KY,40202,FOOD SERVICE,38.2565,-85.759,5/10/18 0:00,97,A,HEINE BROTHERS COFFEE,
69762,1378522,HOME OF THE INNOCENTS,,1100 E MARKET ST,,LOUISVILLE,KY,40204,FOOD SERVICE,38.2524,-85.7305,5/10/18 0:00,100,A,HOME OF THE INNOCENTS,
94367,1378565,MASALA GRILL,,528 S 5TH ST,,LOUISVILLE,KY,40202,FOOD SERVICE,38.2504,-85.7596,5/10/18 0:00,94,A,MASALA GRILL,
84792,1378566,MAGNOLIA BAR and GRILL,,1398 S 2ND ST,,LOUISVILLE,KY,40208,FOOD SERVICE,38.2288,-85.7581,5/10/18 0:00,98,A,MAGNOLIA BAR and GRILL,
45373,1380175,SUBWAY #10519,,2218 HIKES LN,,LOUISVILLE,KY,40218,FOOD SERVICE,38.1999,-85.658,5/17/18 0:00,98,A,SUBWAY #10519,
99559,1380176,NELA CAFETERIA and BAKERY,,4813 S WATTERSON TRAIL,,LOUISVILLE,KY,40291,FOOD SERVICE,38.1586,-85.6145,5/17/18 0:00,99,A,NELA CAFETERIA and BAKERY,
103174,1389357,STARBUCKS SAC,,2100 S FLOYD ST,,LOUISVILLE,KY,40208,FOOD SERVICE,38.131,-85.453,6/19/18 0:00,100,A,STARBUCKS SAC,
100732,1389360,CHICK-FIL-A,,2100 S FLOYD ST,,LOUISVILLE,KY,40208,FOOD SERVICE,38.2178,-85.7556,6/19/18 0:00,98,A,CHICK-FIL-A,
74265,1380463,FINISH LINE SUITES,,700 CENTRAL AVE,,LOUISVILLE,KY,40208,FOOD SERVICE,38.2042,-85.7718,5/18/18 0:00,99,A,FINISH LINE SUITES,
104878,1380528,STARTING GATE PANTRY 4,,700 CENTRAL AVE,,LOUISVILLE,KY,40208,FOOD SERVICE,38.2042,-85.7716,5/18/18 0:00,100,A,STARTING GATE PANTRY 4,
82358,1378953,DESALES CONCESSION BASKETBALL,,425 KENWOOD DR,,LOUISVILLE,KY,40214,FOOD SERVICE,38.1614,-85.773,5/14/18 0:00,100,A,DESALES CONCESSION BASKETBALL,
86280,1378961,FRESH WOK,,9433 WESTPORT RD,,LOUISVILLE,KY,40241,FOOD SERVICE,38.2844,-85.5818,5/14/18 0:00,96,A,FRESH WOK,
104907,1378985,EL TENAMPA BAR and GRILL,,5412 DEL MARIA WAY,,LOUISVILLE,KY,40291,FOOD SERVICE,38.1696,-85.6082,5/14/18 0:00,97,A,EL TENAMPA BAR and GRILL,
104772,1379010,COUVILLION,,1318 MCHENRY ST,,LOUISVILLE,KY,40217,FOOD SERVICE,38.2285,-85.7392,5/14/18 0:00,90,A,COUVILLION,
57936,1381001,TONY BOOM BOZZ,,1448 BARDSTOWN RD,,LOUISVILLE,KY,40204,FOOD SERVICE,38.2319,-85.7101,5/18/18 0:00,99,A,TONY BOOM BOZZ,
90226,1381017,CATFISH HAVEN,,7208 WHIPPLE RD,,LOUISVILLE,KY,40272,FOOD SERVICE,38.694,-85.8988,5/21/18 0:00,95,A,CATFISH HAVEN,
62392,1381063,BOOMER'S CANTEEN,,722 W MAIN ST,,LOUISVILLE,KY,40202,FOOD SERVICE,38.2569,-85.7626,5/21/18 0:00,100,A,BOOMER'S CANTEEN,
88170,1381224,HARVEST RESTAURANT,,624 E MARKET ST,,LOUISVILLE,KY,40202,FOOD SERVICE,38.2531,-85.7409,5/22/18 0:00,100,A,HARVEST RESTAURANT,
104073,1389772,BIG AL'S BEERITAVILLE,,1715 MELLWOOD AVE,,LOUISVILLE,KY,40206,FOOD SERVICE,38.2582,-85.7192,6/18/18 0:00,100,A,BIG AL'S BEERITAVILLE,
73599,1389776,MARRIOTT BANQUET KITCHEN,,280 W JEFFERSON ST,,LOUISVILLE,KY,40202,FOOD SERVICE,38.2532,-85.7547,6/20/18 0:00,97,A,MARRIOTT BANQUET KITCHEN,
73598,1389777,MARRIOTT RESTAURANT,,280 W JEFFERSON ST,,LOUISVILLE,KY,40202,FOOD SERVICE,38.2532,-85.7547,6/20/18 0:00,93,A,MARRIOTT RESTAURANT,
98097,1389793,CHEZ SENEBA,,5019 POPLAR LEVEL RD,,LOUISVILLE,KY,40219,FOOD SERVICE,38.1655,-85.6804,6/20/18 0:00,90,A,CHEZ SENEBA,
71713,1389797,PAPA MURPHY'S,,5016 MUD LN,,LOUISVILLE,KY,40229,FOOD SERVICE,38.916,-85.6699,6/15/18 0:00,98,A,PAPA MURPHY'S,
85484,1389814,TUSCANY ITALIAN RESTAURANT,,165 OUTER LOOP,,LOUISVILLE,KY,40214,FOOD SERVICE,38.1266,-85.7832,6/20/18 0:00,98,A,TUSCANY ITALIAN RESTAURANT,
102754,1389815,HIDEOUT PIZZARIA,,5620 BARRET LN,,LOUISVILLE,KY,40272,FOOD SERVICE,38.1017,-85.867,6/20/18 0:00,100,A,HIDEOUT PIZZARIA,
87900,1379503,DOWN THE STRETCH CAFE @ MASONIC HOME,,3503 MOYER CIRCLE,,LOUISVILLE,KY,40207,FOOD SERVICE,38.1519,-85.413,5/15/18 0:00,96,A,DOWN THE STRETCH CAFE @ MASONIC HOME,
85040,1379512,WAFFLE HOUSE #174,,2805 FERN VALLEY RD,,LOUISVILLE,KY,40213,FOOD SERVICE,38.1572,-85.7123,5/15/18 0:00,93,A,WAFFLE HOUSE #174,
99479,1379530,STEEL CITY POPS,,1021 BARDSTOWN RD,,LOUISVILLE,KY,40204,FOOD SERVICE,38.24,-85.7233,5/15/18 0:00,98,A,STEEL CITY POPS,
96504,1381325,HOOTERS,,4120 DUTCHMANS LN,,LOUISVILLE,KY,40207,FOOD SERVICE,38.2348,-85.6302,5/22/18 0:00,90,A,HOOTERS,
101477,1389831,MARRIOTT LOUISVILLE EAST,,1903 EMBASSY SQUARE BLVD,,LOUISVILLE,KY,40299,FOOD SERVICE,38.2179,-85.5756,6/20/18 0:00,98,A,MARRIOTT LOUISVILLE EAST,
87199,1389833,AL WATAN RESTAURANT,,3707 KLONDIKE LN,,LOUISVILLE,KY,40218,FOOD SERVICE,38.2093,-85.639,6/20/18 0:00,98,A,AL WATAN RESTAURANT,
100585,1389835,CITY CAFE,,2100 S FLOYD ST,,LOUISVILLE,KY,40202,FOOD SERVICE,38.2178,-85.7556,6/20/18 0:00,95,A,CITY CAFE,
101957,1389836,SUBWAY,,2100 S FLOYD ST,,LOUISVILLE,KY,40208,FOOD SERVICE,38.2178,-85.7555,6/20/18 0:00,99,A,SUBWAY,
100140,1389837,VILLE GRILL,,2100 S FLOYD ST,,LOUISVILLE,KY,40208,FOOD SERVICE,38.2178,-85.7556,6/20/18 0:00,98,A,VILLE GRILL,
89378,1389838,JIMMY JOHN'S,,341 W CARDINAL BLVD,,LOUISVILLE,KY,40208,FOOD SERVICE,38.2207,-85.7618,6/20/18 0:00,99,A,JIMMY JOHN'S,
34944,1389840,610 MAGNOLIA,,610 W MAGNOLIA ST,,LOUISVILLE,KY,40208,FOOD SERVICE,38.2294,0,6/20/18 0:00,94,A,610 MAGNOLIA,
104251,1389841,LIMBO,,411 W CHESTNUT ST,,LOUISVILLE,KY,40202,FOOD SERVICE,38.2492,-85.7584,6/20/18 0:00,97,A,LIMBO,
89892,1389846,COME BACK INN,,909 SWAN ST,,LOUISVILLE,KY,40204,FOOD SERVICE,38.2395,-85.7364,6/20/18 0:00,99,A,COME BACK INN,
35059,1403388,NACHBAR,,969 CHARLES ST,,LOUISVILLE,KY,40204,FOOD SERVICE,38.2303,-85.7355,8/8/18 0:00,98,A,NACHBAR,
100349,1403397,MELLWOOD TAVERN,,1801 BROWNSBORO RD,,LOUISVILLE,KY,40206,FOOD SERVICE,38.2603,-85.7165,8/7/18 0:00,98,A,MELLWOOD TAVERN,
34326,1403419,CENTERSTONE,,600 S PRESTON ST,,LOUISVILLE,KY,40202,FOOD SERVICE,38.2475,-85.7477,8/8/18 0:00,100,A,CENTERSTONE,
98571,1403420,ALOFT DOWNTOWN,,102 W MAIN ST,,LOUISVILLE,KY,40202,FOOD SERVICE,38.2558,-85.7518,8/8/18 0:00,100,A,ALOFT DOWNTOWN,
41569,1411777,DITTOS,,1114 BARDSTOWN RD,,LOUISVILLE,KY,40205,FOOD SERVICE,38.2379,-85.7206,9/5/18 0:00,99,A,DITTOS,
47808,1415479,KFC Y052-049,,3400 BARDSTOWN RD,,LOUISVILLE,KY,40218,FOOD SERVICE,38.2058,0,9/24/18 0:00,94,A,KFC Y052-049,
46733,1417305,RECENTER MINISTRIES,,733 E JEFFERSON ST,,LOUISVILLE,KY,40203,FOOD SERVICE,38.2523,-85.739,10/1/18 0:00,93,A,RECENTER MINISTRIES,
33262,1417377,NORTON ST MATTHEWS HOSPITAL,,4001 DUTCHMANS LN,,LOUISVILLE,KY,40207,FOOD SERVICE,38.2356,-85.6328,9/28/18 0:00,98,A,NORTON ST MATTHEWS HOSPITAL,
96698,1417378,NORTON ST. MATTHEWS BISTRO,,4001 DUTCHMANS LN,,LOUISVILLE,KY,40207,FOOD SERVICE,38.2354,-85.44456,9/28/18 0:00,100,A,NORTON ST. MATTHEWS BISTRO,
52375,1419480,PAPA JOHN'S #12,,6902 SOUTHSIDE DR,,LOUISVILLE,KY,40214,FOOD SERVICE,38.1577,-85.765,10/8/18 0:00,98,A,PAPA JOHN'S #12,
70722,1419481,PENN STATION,,300 W WOODLAWN AVE,,LOUISVILLE,KY,40214,FOOD SERVICE,38.1814,-85.7665,10/8/18 0:00,97,A,PENN STATION,
96303,1419485,CORNER PIZZA and PUB,,4111 MURPHY LN,,LOUISVILLE,KY,40241,FOOD SERVICE,38.3031,-85.5327,10/8/18 0:00,92,A,CORNER PIZZA and PUB,
60962,1393296,BEARNO'S,,6101 BARDSTOWN RD,,LOUISVILLE,KY,40291,FOOD SERVICE,38.158,-85.5908,6/29/18 0:00,96,A,BEARNO'S,
103905,1393305,JOELLA'S HOT CHICKEN,,3400 FRANKFORT AVE,,LOUISVILLE,KY,40207,FOOD SERVICE,38.2538,-85.6699,6/28/18 0:00,99,A,JOELLA'S HOT CHICKEN,
60974,1393306,CARDS STAND EHRLER'S #17,,2800 S FLOYD ST,,LOUISVILLE,KY,40209,FOOD SERVICE,38.2058,-85.7591,6/29/18 0:00,99,A,CARDS STAND EHRLER'S #17,
60990,1393312,CARDS STAND #11,,2800 S FLOYD ST,,LOUISVILLE,KY,40209,FOOD SERVICE,38.2058,-85.7591,6/29/18 0:00,100,A,CARDS STAND #11,
99018,1393317,PANERA BREAD #1891,,4923 OUTER LOOP,,LOUISVILLE,KY,40219,FOOD SERVICE,38.1379,-85.6663,6/29/18 0:00,99,A,PANERA BREAD #1891,
94680,1393319,JIMMY JOHN'S,,332 W BROADWAY,,LOUISVILLE,KY,40203,FOOD SERVICE,38.246,-85.7578,6/29/18 0:00,97,A,JIMMY JOHN'S,
90912,1397059,BURGER KING #892,,9120 TAYLORSVILLE RD,,LOUISVILLE,KY,40299,FOOD SERVICE,38.2137,-85.5894,7/16/18 0:00,100,A,BURGER KING #892,
99096,1397115,CITIZEN 7,,10715 MEETING ST,,PROSPECT,KY,40059,FOOD SERVICE,38.2256,-85.5602,7/16/18 0:00,98,A,CITIZEN 7,
84022,1397145,PAPA JOHN'S,,10627 DIXIE HWY,,LOUISVILLE,KY,40272,FOOD SERVICE,38.1006,-85.871,7/16/18 0:00,94,A,PAPA JOHN'S,
40912,1401060,EL NOPAL,,10500 WATTERSON TRAIL,,LOUISVILLE,KY,40299,FOOD SERVICE,38.1942,-85.5651,7/30/18 0:00,95,A,EL NOPAL,
90189,1401099,QDOBA #2021,,970 BRECKENRIDGE LN,,LOUISVILLE,KY,40207,FOOD SERVICE,38.232,-85.383,7/27/18 0:00,95,A,QDOBA #2021,
57286,1392949,BURGER KING #546,,5611 NEW CUT RD,,LOUISVILLE,KY,40214,FOOD SERVICE,38.1419,-85.7738,6/28/18 0:00,100,A,BURGER KING #546,
88828,1392968,DERBY CITY PIZZA,,5603 GREENWOOD RD,,LOUISVILLE,KY,40258,FOOD SERVICE,38.1447,-85.8598,6/28/18 0:00,92,A,DERBY CITY PIZZA,
93015,1392971,LIL DIAMOND CAFE,,3441 BRECKENRIDGE LN,,LOUISVILLE,KY,40220,FOOD SERVICE,38.1982,-85.6232,6/28/18 0:00,96,A,LIL DIAMOND CAFE,
104153,1396406,YUM 3.021 S1 EAST PANTRY,,1 ARENA PLAZA,,LOUISVILLE,KY,40202,FOOD SERVICE,38.2557,-85.7153,7/11/18 0:00,99,A,YUM 3.021 S1 EAST PANTRY,
87076,1396421,YUM 4.052 MAIN ST CLUB,,1 ARENA PLAZA,,LOUISVILLE,KY,40202,FOOD SERVICE,38.2557,-85.7153,7/11/18 0:00,100,A,YUM 4.052 MAIN ST CLUB,
87074,1396422,YUM 4.005 IN SEAT PANTRY,,1 ARENA PLAZA,,LOUISVILLE,KY,40202,FOOD SERVICE,38.2557,-85.7153,7/11/18 0:00,100,A,YUM 4.005 IN SEAT PANTRY,
87078,1396423,YUM 4.054 GATEWAY GRILL,,1 ARENA PLAZA,,LOUISVILLE,KY,40202,FOOD SERVICE,38.2557,-85.7153,7/11/18 0:00,98,A,YUM 4.054 GATEWAY GRILL,
53576,1399915,FAZOLI'S,,10307 DIXIE HWY,,LOUISVILLE,KY,40272,FOOD SERVICE,38.105,-85.8678,7/25/18 0:00,99,A,FAZOLI'S,
69467,1400157,NORTH END CAFE,,1722 FRANKFORT AVE,,LOUISVILLE,KY,40206,FOOD SERVICE,38.2572,-85.7186,7/25/18 0:00,95,A,NORTH END CAFE,
96927,1403688,ASPEN CREEK GRILL,,302 BULLITT LN,,LOUISVILLE,KY,40222,FOOD SERVICE,38.2474,-85.6186,8/9/18 0:00,95,A,ASPEN CREEK GRILL,
58881,1403706,MARY QUEEN OF PEACE GYM,,4005 DIXIE HWY,,LOUISVILLE,KY,40216,FOOD SERVICE,38.1912,-85.8073,8/9/18 0:00,100,A,MARY QUEEN OF PEACE GYM,
100728,1407681,SRC,,2100 S FLOYD ST,,LOUISVILLE,KY,40208,FOOD SERVICE,38.2178,-85.7556,8/21/18 0:00,100,A,SRC,
105728,1409849,APPLEBEE'S,,4717 DIXIE HWY,,LOUISVILLE,KY,40216,FOOD SERVICE,38.1745,-85.8221,9/4/18 0:00,96,A,APPLEBEE'S,
33412,1409854,SUN VALLEY GOLF COURSE,,6505 BETHANY LN,,LOUISVILLE,KY,40272,FOOD SERVICE,38.1021,-85.8865,9/4/18 0:00,97,A,SUN VALLEY GOLF COURSE,
91110,1409870,DENNY'S,,4030 DUTCHMANS LN,,LOUISVILLE,KY,40207,FOOD SERVICE,38.14,-85.375,8/27/18 0:00,93,A,DENNY'S,
97376,1409871,SARANG,,1908 EASTERN PKWY,,LOUISVILLE,KY,40205,FOOD SERVICE,38.2317,-81.7094,8/27/18 0:00,92,A,SARANG,
39080,1413621,KFC Y052-051,,4812 OUTER LOOP,,LOUISVILLE,KY,40219,FOOD SERVICE,38.1375,-85.6718,9/18/18 0:00,100,A,KFC Y052-051,
84372,1417546,EL NOPAL,,5000 SHELBYVILLE RD,,LOUISVILLE,KY,40207,FOOD SERVICE,38.2502,-85.6237,10/2/18 0:00,98,A,EL NOPAL,
88273,1419510,DAIRY QUEEN,,400 FAIRDALE RD,,FAIRDALE,KY,40118,FOOD SERVICE,38.105,-85.7586,10/8/18 0:00,98,A,DAIRY QUEEN,
34635,1419557,FRISCH'S BIG BOY #154,,4800 SHELBYVILLE RD,,LOUISVILLE,KY,40207,FOOD SERVICE,38.25,-85.628,10/8/18 0:00,95,A,FRISCH'S BIG BOY #154,
92610,1419561,MCDONALD'S,,1245 BARDSTOWN RD,,LOUISVILLE,KY,40204,FOOD SERVICE,38.142,-85.431,10/5/18 0:00,90,A,MCDONALD'S,
90724,1419564,BELLARMINE TRACK and FIELD CONCESSIONS,,2001 NEWBURG RD,,LOUISVILLE,KY,40205,FOOD SERVICE,38.132,-85.422,10/5/18 0:00,98,A,BELLARMINE TRACK and FIELD CONCESSIONS,
98592,1422686,"DRINKS WELL SERVICES, LLC",,1201 STORY AVE,,LOUISVILLE,KY,40206,FOOD SERVICE,38.2557,-85.7291,10/19/18 0:00,100,A,"DRINKS WELL SERVICES, LLC",
102199,1422701,LAS MARIA'S,,4801 OUTER LOOP,,LOUISVILLE,KY,40219,FOOD SERVICE,38.1419,-85.6707,10/19/18 0:00,96,A,LAS MARIA'S,
60982,1393465,CARDS CLUB PJ PIZZA #1,,2800 S FLOYD ST,,LOUISVILLE,KY,40209,FOOD SERVICE,38.2058,-85.7591,6/30/18 0:00,98,A,CARDS CLUB PJ PIZZA #1,
83592,1396660,JASON'S DELI,,1975 S HURSTBOURNE PKWY,,LOUISVILLE,KY,40220,FOOD SERVICE,38.2116,0,7/12/18 0:00,97,A,JASON'S DELI,
48491,1396668,LONNIE'S BEST TASTE OF CHICAGO,,121 ST. MATTHEWS AVE,,LOUISVILLE,KY,40207,FOOD SERVICE,38.2537,-85.6522,6/21/18 0:00,100,A,LONNIE'S BEST TASTE OF CHICAGO,
66736,1396682,BARNES and NOBLE BOOKSELLERS,,4100 SUMMIT PLAZA DR,,LOUISVILLE,KY,40241,FOOD SERVICE,38.3059,-85.5774,7/12/18 0:00,100,A,BARNES and NOBLE BOOKSELLERS,
71704,1396683,NEW DIRECTIONS BAR and GRILL,,2630 CHAMBERLAIN LN,,LOUISVILLE,KY,40245,FOOD SERVICE,38.2894,-85.5151,7/12/18 0:00,99,A,NEW DIRECTIONS BAR and GRILL,
105478,1396688,DOUBLE FLAME BURGERS,,5408 VALLEY STATION RD,,LOUISVILLE,KY,40272,FOOD SERVICE,38.1064,-85.8637,7/12/18 0:00,98,A,DOUBLE FLAME BURGERS,
93807,1396698,MASHA-ALLAH AFRICAN RESTAURANT,,3927 BARDSTOWN RD,,LOUISVILLE,KY,40218,FOOD SERVICE,38.1948,-85.6513,7/12/18 0:00,94,A,MASHA-ALLAH AFRICAN RESTAURANT,
100267,1396700,ARNO PIZZA,,3933 BARDSTOWN RD,,LOUISVILLE,KY,40218,FOOD SERVICE,38.1948,-85.6513,7/12/18 0:00,100,A,ARNO PIZZA,
105399,1396702,TORTILLERIA Y ROSTICERIA LA OAXAQUENA,,5410 DEL MARIA PLACE,,LOUISVILLE,KY,40291,FOOD SERVICE,38.1693,-85.6077,7/12/18 0:00,96,A,TORTILLERIA Y ROSTICERIA LA OAXAQUENA,
87477,1396741,SIMPLY THAI,,323 WALLACE AVE,,LOUISVILLE,KY,40207,FOOD SERVICE,38.2521,-85.6573,7/12/18 0:00,94,A,SIMPLY THAI,
52126,1400254,HYATT PLACE,,701 S HURSTBOURNE LN,,LOUISVILLE,KY,40222,FOOD SERVICE,38.2366,-85.576,7/25/18 0:00,98,A,HYATT PLACE,
98267,1403958,EXTREME PITA,,7900 SHELBYVILLE RD,,LOUISVILLE,KY,40222,FOOD SERVICE,38.2465,-85.6103,8/10/18 0:00,97,A,EXTREME PITA,
103499,1407824,MCGRUFFINS,,2745 S HURSTBOURNE PKWY,,LOUISVILLE,KY,40220,FOOD SERVICE,38.2164,-85.5963,8/22/18 0:00,100,A,MCGRUFFINS,
103478,1407825,DIRECTORS EXPERIENCE CONCESSION,,2745 S HURSTBOURNE PKWY,,LOUISVILLE,KY,40220,FOOD SERVICE,38.2104,-85.5963,8/22/18 0:00,100,A,DIRECTORS EXPERIENCE CONCESSION,
75804,1407828,AFC SUSHI @ KROGER #764,,9501 WESTPORT RD,,LOUISVILLE,KY,40241,FOOD SERVICE,38.2885,-85.5743,8/23/18 0:00,100,A,AFC SUSHI @ KROGER #764,
88843,1407860,DOUBLE DRAGON II,,5222 DIXIE HWY,,LOUISVILLE,KY,40216,FOOD SERVICE,38.1626,-85.8327,8/23/18 0:00,96,A,DOUBLE DRAGON II,
83409,1409945,SPORTS and SOCIAL CLUB,,427 S 4TH ST,,LOUISVILLE,KY,40202,FOOD SERVICE,38.251,-85.7574,9/4/18 0:00,94,A,SPORTS and SOCIAL CLUB,
105891,1413674,PURRFECT DAY CAFE,,1741 BARDSTOWN RD,,LOUISVILLE,KY,40205,FOOD SERVICE,38.2291,-85.7017,9/18/18 0:00,100,A,PURRFECT DAY CAFE,
34292,1413695,MARMADUKE'S,,4206 POPLAR LEVEL RD,,LOUISVILLE,KY,40213,FOOD SERVICE,38.1984,-85.7083,9/18/18 0:00,96,A,MARMADUKE'S,
34827,1415840,BONNYCASTLE CLUB,,1951 BONNYCASTLE AVE,,LOUISVILLE,KY,40205,FOOD SERVICE,38.2306,-85.7054,9/25/18 0:00,98,A,BONNYCASTLE CLUB,
62284,1417596,PENN STATION #5,,1933 BLANKENBAKER PKWY,,LOUISVILLE,KY,40299,FOOD SERVICE,38.2136,-85.5386,10/2/18 0:00,97,A,PENN STATION #5,
97641,1417665,LA COCINA DE MAMA,,2809 N HURSTBOURNE PKWY,,LOUISVILLE,KY,40223,FOOD SERVICE,38.2867,-85.5702,10/2/18 0:00,99,A,LA COCINA DE MAMA,
34318,1422714,DOMINO'S PIZZA #1422,,3951 TAYLORSVILLE RD,,LOUISVILLE,KY,40220,FOOD SERVICE,38.2206,-85.6268,10/19/18 0:00,91,A,DOMINO'S PIZZA #1422,
81894,1422721,MCDONALD'S,,3820 RUCKRIEGEL PKWY,,LOUISVILLE,KY,40299,FOOD SERVICE,38.1885,-85.5644,10/19/18 0:00,97,A,MCDONALD'S,
93598,1422722,CHINA KING,,3830 RUCKRIEGEL PKWY,,LOUISVILLE,KY,40299,FOOD SERVICE,38.1898,-85.5657,10/19/18 0:00,95,A,CHINA KING,
94496,1422731,WEST END BAPTIST CHURCH,,1400 S 4TH ST,,LOUISVILLE,KY,40208,FOOD SERVICE,38.2285,-85.7619,10/20/18 0:00,98,A,WEST END BAPTIST CHURCH,
36994,1422734,DOMINO'S PIZZA #1426,,3900 S 7TH ST,,LOUISVILLE,KY,40216,FOOD SERVICE,38.1946,-85.8041,10/19/18 0:00,97,A,DOMINO'S PIZZA #1426,
61128,1393703,CARDS STAND #06,,2800 S FLOYD ST,,LOUISVILLE,KY,40209,FOOD SERVICE,38.2058,-85.7591,6/30/18 0:00,100,A,CARDS STAND #06,
60989,1393712,CARDS STAND #10,,2800 S FLOYD ST,,LOUISVILLE,KY,40209,FOOD SERVICE,38.2058,-85.7591,6/29/18 0:00,100,A,CARDS STAND #10,
66831,1397574,CARRABBA'S ITALIAN GRILL #6801,,617 S HURSTBOURNE PKWY,,LOUISVILLE,KY,40223,FOOD SERVICE,38.2379,-85.5764,7/13/18 0:00,95,A,CARRABBA'S ITALIAN GRILL #6801,
41186,1401479,SICHUAN GARDENS,,9850 LINN STATION RD,,LOUISVILLE,KY,40223,FOOD SERVICE,38.2257,-85.5759,7/31/18 0:00,90,A,SICHUAN GARDENS,
86635,1401588,BLUEGRASS BREWING COMPANY,,300 W MAIN ST,,LOUISVILLE,KY,40202,FOOD SERVICE,38.2564,-85.7549,7/31/18 0:00,98,A,BLUEGRASS BREWING COMPANY,
77586,1405141,ARBY'S #773,,4975 SHELBYVILLE RD,,LOUISVILLE,KY,40207,FOOD SERVICE,38.251,-85.6249,8/15/18 0:00,98,A,ARBY'S #773,
97906,1405143,WAYLON'S FEED and FIREWATER,,3939 SHELBYVILLE RD,,LOUISVILLE,KY,40207,FOOD SERVICE,38.253,-85.6535,8/15/18 0:00,97,A,WAYLON'S FEED and FIREWATER,
72496,1405239,SPINELLI'S,,614 BAXTER AVE,,LOUISVILLE,KY,40204,FOOD SERVICE,38.2456,-85.7287,8/15/18 0:00,88,A,SPINELLI'S,
69483,1405241,BRISTOL BAR and GRILLE,,614 W MAIN ST,,LOUISVILLE,KY,40202,FOOD SERVICE,38.2567,-85.7607,8/15/18 0:00,98,A,BRISTOL BAR and GRILLE,
60992,1393307,CARDS STAND #13,,2800 S FLOYD ST,,LOUISVILLE,KY,40209,FOOD SERVICE,38.2058,-85.7591,6/29/18 0:00,99,A,CARDS STAND #13,
32905,1393322,EXECUTIVE STRIKE and SPARE,,911 PHILLIPS LN,,LOUISVILLE,KY,40209,FOOD SERVICE,38.1935,-85.7417,6/28/18 0:00,99,A,EXECUTIVE STRIKE and SPARE,
96754,1393323,PAPA MURPHY'S #40,,3024 S 3RD ST,,LOUISVILLE,KY,40208,FOOD SERVICE,38.206,-85.7638,6/28/18 0:00,96,A,PAPA MURPHY'S #40,
90270,1393331,PAPA MURPHY'S,,6661 DIXIE HWY,,LOUISVILLE,KY,40258,FOOD SERVICE,38.1536,-85.835,6/29/18 0:00,98,A,PAPA MURPHY'S,
87198,1396884,BEARNO'S PIZZA,,9222 WESTPORT RD,,LOUISVILLE,KY,40222,FOOD SERVICE,38.2702,-85.6157,7/13/18 0:00,100,A,BEARNO'S PIZZA,
94613,1396890,ASPEN CREEK,,8000 BARDSTOWN RD,,LOUISVILLE,KY,40291,FOOD SERVICE,0,0,7/13/18 0:00,99,A,ASPEN CREEK,
45404,1396891,PAPA JOHN'S,,5709 BARDSTOWN RD,,LOUISVILLE,KY,40291,FOOD SERVICE,38.1631,-85.5955,7/13/18 0:00,99,A,PAPA JOHN'S,
81490,1396892,SAKE BLUE JAPANESE BISTRO,,9326 CEDAR CENTER WAY,,LOUISVILLE,KY,40291,FOOD SERVICE,38.1683,-85.6506,7/13/18 0:00,97,A,SAKE BLUE JAPANESE BISTRO,
94205,1400489,MOLCAJETE,,2932 S 4TH ST,,LOUISVILLE,KY,40208,FOOD SERVICE,38.2066,-85.7655,7/26/18 0:00,100,A,MOLCAJETE,
94490,1400521,JET'S PIZZA,,101 S HUBBARDS LN,,LOUISVILLE,KY,40207,FOOD SERVICE,38.2516,-85.6399,7/26/18 0:00,100,A,JET'S PIZZA,
90788,1404039,VALLEY MASONIC LODGE 511,,9619 DIXIE HWY,,LOUISVILLE,KY,40272,FOOD SERVICE,38.1159,-85.8596,8/10/18 0:00,100,A,VALLEY MASONIC LODGE 511,
96480,1408090,RAISING CANE'S,,6811 BARDSTOWN RD,,LOUISVILLE,KY,40291,FOOD SERVICE,38.1484,-85.5865,8/24/18 0:00,98,A,RAISING CANE'S,
64606,1410113,FUJI JAPANESE STEAKHOUSE,,3576 SPRINGHURST BLVD,,LOUISVILLE,KY,40241,FOOD SERVICE,38.2983,-85.5617,9/5/18 0:00,99,A,FUJI JAPANESE STEAKHOUSE,
